     3.03           OBSERVATION DATA    G: GPS              RINEX VERSION / TYPE
RTKCONV 2.4.3 b29                       20180608 014639 UTC PGM / RUN BY / DATE 
log: C:\Users\10156\Desktop\3.rtcm3                         COMMENT             
format: RTCM 3                                              COMMENT             
                                                            MARKER NAME         
                                                            MARKER NUMBER       
                                                            MARKER TYPE         
                                                            OBSERVER / AGENCY   
                                                            REC # / TYPE / VERS 
                    ADVNULLANTENNA                          ANT # / TYPE        
 -2177406.4770  4373276.4104  4086815.4428                  APPROX POSITION XYZ 
        0.0000        0.0000        0.0000                  ANTENNA: DELTA H/E/N
G    8 C1C L1C D1C S1C C1W L1W D1W S1W                      SYS / # / OBS TYPES 
  2018     6     8     1    40    9.0000000     GPS         TIME OF FIRST OBS   
  2018     6     8     1    46   57.0000000     GPS         TIME OF LAST OBS    
G                                                           SYS / PHASE SHIFT   
  0                                                         GLONASS SLOT / FRQ #
 C1C    0.000 C1P    0.000 C2C    0.000 C2P    0.000        GLONASS COD/PHS/BIS 
                                                            END OF HEADER       
> 2018  6  8  1 40  9.0000000  0  9                     
G 4  23022612.476   120984636.163                          42.000                                                                  
G 8  22697403.977   119275677.670                          45.000                                                                  
G 9  22201317.228   116668725.835                          47.000                                                                  
G16  20469393.967   107567408.067                          49.000                                                                  
G21  24444382.141   128456108.488                          41.000                                                                  
G23  21324024.109   112058511.847                          48.000                                                                  
G26  21982101.645   115516747.875                          45.000                                                                  
G27  20390033.579   107150390.486                          51.000                                                                  
G31  24130734.561   126807847.666                          42.000                                                                  
> 2018  6  8  1 40 10.0000000  0  9                     
G 4  23023165.451   120987542.455                          42.000                                                                  
G 8  22696755.117   119272268.539                          45.000                                                                  
G 9  22201053.285   116667338.461                          47.000                                                                  
G16  20469629.212   107568644.371                          49.000                                                                  
G21  24444376.923   128456080.496                          41.000                                                                  
G23  21324145.689   112059150.987                          48.000                                                                  
G26  21982532.825   115519013.871                          45.000                                                                  
G27  20389721.783   107148751.893                          51.000                                                                  
G31  24131293.093   126810782.754                          42.000                                                                  
> 2018  6  8  1 40 11.0000000  0  9                     
G 4  23023718.461   120990448.495                          42.000                                                                  
G 8  22696106.347   119268859.373                          45.000                                                                  
G 9  22200789.306   116665951.379                          47.000                                                                  
G16  20469864.529   107569880.672                          49.000                                                                  
G21  24444371.706   128456052.645                          41.000                                                                  
G23  21324267.395   112059790.430                          48.000                                                                  
G26  21982964.022   115521279.685                          45.000                                                                  
G27  20389410.111   107147113.596                          51.000                                                                  
G31  24131851.500   126813717.693                          42.000                                                                  
> 2018  6  8  1 40 12.0000000  0  9                     
G 4  23024271.597   120993354.568                          42.000                                                                  
G 8  22695457.594   119265450.486                          45.000                                                                  
G 9  22200525.470   116664564.887                          47.000                                                                  
G16  20470099.847   107571117.280                          49.000                                                                  
G21  24444366.595   128456025.299                          41.000                                                                  
G23  21324389.244   112060430.518                          48.000                                                                  
G26  21983395.184   115523545.663                          45.000                                                                  
G27  20389098.565   107145475.921                          51.000                                                                  
G31  24132410.068   126816652.787                          42.000                                                                  
> 2018  6  8  1 40 13.0000000  0  9                     
G 4  23024824.697   120996260.913                          42.000                                                                  
G 8  22694808.931   119262042.075                          45.000                                                                  
G 9  22200261.741   116663179.185                          47.000                                                                  
G16  20470335.235   107572354.394                          49.000                                                                  
G21  24444361.485   128455998.584                          40.000                                                                  
G23  21324511.218   112061071.446                          48.000                                                                  
G26  21983826.470   115525811.958                          45.000                                                                  
G27  20388787.126   107143839.057                          51.000                                                                  
G31  24132968.653   126819588.221                          42.000                                                                  
> 2018  6  8  1 40 14.0000000  0  9                     
G 4  23025377.957   120999167.616                          42.000                                                                  
G 8  22694160.428   119258634.256                          45.000                                                                  
G 9  22199998.191   116661794.381                          47.000                                                                  
G16  20470570.767   107573592.124                          49.000                                                                  
G21  24444356.499   128455972.702                          40.000                                                                  
G23  21324633.371   112061713.292                          48.000                                                                  
G26  21984257.704   115528078.696                          45.000                                                                  
G27  20388475.811   107142203.108                          51.000                                                                  
G31  24133527.471   126822524.116                          42.000                                                                  
> 2018  6  8  1 40 15.0000000  0  9                     
G 4  23025931.236   121002074.460                          42.000                                                                  
G 8  22693511.961   119255226.803                          45.000                                                                  
G 9  22199734.784   116660410.260                          47.000                                                                  
G16  20470806.370   107574830.247                          49.000                                                                  
G21  24444351.603   128455947.351                          41.000                                                                  
G23  21324755.666   112062355.860                          48.000                                                                  
G26  21984689.187   115530345.669                          45.000                                                                  
G27  20388164.622   107140567.860                          51.000                                                                  
G31  24134086.093   126825460.270                          42.000                                                                  
> 2018  6  8  1 40 16.0000000  0  9                     
G 4  23026484.425   121004981.231                          42.000                                                                  
G 8  22692863.530   119251819.533                          44.000                                                                  
G 9  22199471.448   116659026.615                          47.000                                                                  
G16  20471042.027   107576068.558                          49.000                                                                  
G21  24444346.850   128455922.353                          40.000                                                                  
G23  21324878.016   112062998.968                          48.000                                                                  
G26  21985120.581   115532612.663                          45.000                                                                  
G27  20387853.559   107138933.120                          51.000                                                                  
G31  24134644.875   126828396.435                          42.000                                                                  
> 2018  6  8  1 40 17.0000000  0  9                     
G 4  23027037.614   121007888.242                          42.000                                                                  
G 8  22692215.278   119248412.703                          44.000                                                                  
G 9  22199208.255   116657643.744                          47.000                                                                  
G16  20471277.790   107577307.356                          48.000                                                                  
G21  24444342.329   128455898.023                          40.000                                                                  
G23  21325000.526   112063642.865                          48.000                                                                  
G26  21985552.046   115534879.973                          45.000                                                                  
G27  20387542.602   107137299.166                          51.000                                                                  
G31  24135203.925   126831332.937                          42.000                                                                  
> 2018  6  8  1 40 18.0000000  0  9                     
G 4  23027590.839   121010795.227                          42.000                                                                  
G 8  22691566.972   119245006.055                          44.000                                                                  
G 9  22198945.151   116656261.396                          47.000                                                                  
G16  20471513.608   107578546.371                          48.000                                                                  
G21  24444337.808   128455874.051                          40.000                                                                  
G23  21325123.161   112064287.322                          48.000                                                                  
G26  21985983.530   115537147.348                          45.000                                                                  
G27  20387231.770   107135665.752                          50.000                                                                  
G31  24135762.797   126834269.510                          42.000                                                                  
> 2018  6  8  1 40 19.0000000  0  9                     
G 4  23028143.957   121013702.004                          42.000                                                                  
G 8  22690918.612   119241599.466                          44.000                                                                  
G 9  22198682.137   116654879.382                          47.000                                                                  
G16  20471749.390   107579785.442                          48.000                                                                  
G21  24444333.252   128455850.315                          40.000                                                                  
G23  21325245.849   112064932.159                          48.000                                                                  
G26  21986414.995   115539414.603                          45.000                                                                  
G27  20386921.064   107134032.693                          51.000                                                                  
G31  24136321.615   126837205.986                          42.000                                                                  
> 2018  6  8  1 40 20.0000000  0  9                     
G 4  23028697.110   121016609.009                          42.000                                                                  
G 8  22690270.431   119238193.313                          44.000                                                                  
G 9  22198419.338   116653498.132                          47.000                                                                  
G16  20471985.243   107581024.985                          48.000                                                                  
G21  24444328.820   128455827.221                          40.000                                                                  
G23  21325368.681   112065577.799                          48.000                                                                  
G26  21986846.478   115541682.174                          45.000                                                                  
G27  20386610.464   107132400.424                          51.000                                                                  
G31  24136880.308   126840142.771                          42.000                                                                  
> 2018  6  8  1 40 21.0000000  0  9                     
G 4  23029250.210   121019516.123                          42.000                                                                  
G 8  22689622.322   119234787.513                          45.000                                                                  
G 9  22198156.699   116652117.553                          47.000                                                                  
G16  20472221.203   107582264.907                          49.000                                                                  
G21  24444324.567   128455804.664                          40.000                                                                  
G23  21325491.638   112066224.132                          48.000                                                                  
G26  21987278.033   115543949.942                          45.000                                                                  
G27  20386299.990   107130768.839                          51.000                                                                  
G31  24137439.126   126843079.810                          42.000                                                                  
> 2018  6  8  1 40 22.0000000  0  9                     
G 4  23029803.471   121022423.076                          42.000                                                                  
G 8  22688974.230   119231381.784                          45.000                                                                  
G 9  22197894.042   116650737.338                          47.000                                                                  
G16  20472457.092   107583504.902                          49.000                                                                  
G21  24444320.136   128455782.347                          40.000                                                                  
G23  21325614.720   112066870.864                          48.000                                                                  
G26  21987709.552   115546217.631                          45.000                                                                  
G27  20385989.641   107129137.634                          51.000                                                                  
G31  24137997.747   126846016.756                          42.000                                                                  
> 2018  6  8  1 40 23.0000000  0  9                     
G 4  23030356.732   121025330.345                          42.000                                                                  
G 8  22688326.299   119227976.594                          45.000                                                                  
G 9  22197631.492   116649357.998                          47.000                                                                  
G16  20472693.124   107584745.481                          49.000                                                                  
G21  24444316.044   128455760.794                          40.000                                                                  
G23  21325737.944   112067518.508                          48.000                                                                  
G26  21988141.107   115548485.731                          45.000                                                                  
G27  20385679.399   107127507.319                          51.000                                                                  
G31  24138556.529   126848954.127                          42.000                                                                  
> 2018  6  8  1 40 24.0000000  0  9                     
G 4  23030910.028   121028237.644                          42.000                                                                  
G 8  22687678.404   119224571.657                          45.000                                                                  
G 9  22197369.157   116647979.212                          47.000                                                                  
G16  20472929.228   107585986.336                          49.000                                                                  
G21  24444311.952   128455739.674                          40.000                                                                  
G23  21325861.258   112068166.740                          48.000                                                                  
G26  21988572.662   115550753.922                          45.000                                                                  
G27  20385369.300   107125877.588                          51.000                                                                  
G31  24139115.597   126851891.627                          42.000                                                                  
> 2018  6  8  1 40 25.0000000  0  9                     
G 4  23031463.325   121031145.128                          42.000                                                                  
G 8  22687030.563   119221167.142                          45.000                                                                  
G 9  22197106.947   116646601.174                          47.000                                                                  
G16  20473165.456   107587227.637                          48.000                                                                  
G21  24444307.895   128455719.162                          40.000                                                                  
G23  21325984.733   112068815.763                          48.000                                                                  
G26  21989004.288   115553022.417                          45.000                                                                  
G27  20385059.290   107124248.612                          51.000                                                                  
G31  24139674.773   126854829.397                          42.000                                                                  
> 2018  6  8  1 40 26.0000000  0  9                     
G 4  23032016.532   121034052.577                          42.000                                                                  
G 8  22686382.721   119217762.809                          45.000                                                                  
G 9  22196844.773   116645223.627                          46.000                                                                  
G16  20473401.685   107588469.141                          48.000                                                                  
G21  24444304.179   128455699.032                          40.000                                                                  
G23  21326108.316   112069465.309                          48.000                                                                  
G26  21989436.039   115555290.937                          45.000                                                                  
G27  20384749.423   107122620.151                          51.000                                                                  
G31  24140233.877   126857767.250                          42.000                                                                  
> 2018  6  8  1 40 27.0000000  0  9                     
G 4  23032569.792   121036959.978                          42.000                                                                  
G 8  22685735.005   119214358.667                          44.000                                                                  
G 9  22196582.742   116643846.581                          46.000                                                                  
G16  20473637.949   107589710.855                          48.000                                                                  
G21  24444300.408   128455679.275                          40.000                                                                  
G23  21326232.023   112070115.395                          48.000                                                                  
G26  21989867.665   115557559.497                          45.000                                                                  
G27  20384439.664   107120992.210                          51.000                                                                  
G31  24140793.016   126860705.134                          42.000                                                                  
> 2018  6  8  1 40 28.0000000  0  9                     
G 4  23033123.124   121039867.670                          42.000                                                                  
G 8  22685087.378   119210955.035                          45.000                                                                  
G 9  22196320.764   116642470.337                          47.000                                                                  
G16  20473874.374   107590953.104                          48.000                                                                  
G21  24444296.709   128455660.204                          40.000                                                                  
G23  21326355.945   112070766.335                          48.000                                                                  
G26  21990299.524   115559828.422                          45.000                                                                  
G27  20384130.029   107119365.111                          51.000                                                                  
G31  24141352.102   126863643.412                          42.000                                                                  
> 2018  6  8  1 40 29.0000000  0  9                     
G 4  23033676.367   121042775.486                          42.000                                                                  
G 8  22684439.733   119207551.771                          45.000                                                                  
G 9  22196059.054   116641094.784                          47.000                                                                  
G16  20474110.817   107592195.717                          49.000                                                                  
G21  24444293.171   128455641.673                          40.000                                                                  
G23  21326479.991   112071417.973                          48.000                                                                  
G26  21990731.311   115562097.569                          45.000                                                                  
G27  20383820.520   107117738.702                          51.000                                                                  
G31  24141911.295   126866581.896                          42.000                                                                  
> 2018  6  8  1 40 30.0000000  0  9                     
G 4  23034229.717   121045683.128                          42.000                                                                  
G 8  22683792.142   119204148.582                          45.000                                                                  
G 9  22195797.416   116639719.602                          47.000                                                                  
G16  20474347.295   107593438.435                          48.000                                                                  
G21  24444289.651   128455623.423                          40.000                                                                  
G23  21326604.074   112072070.037                          48.000                                                                  
G26  21991163.205   115564366.628                          45.000                                                                  
G27  20383511.136   107116112.689                          51.000                                                                  
G31  24142470.471   126869520.347                          42.000                                                                  
> 2018  6  8  1 40 31.0000000  0  9                     
G 4  23034782.907   121048590.767                          42.000                                                                  
G 8  22683144.568   119200745.620                          45.000                                                                  
G 9  22195535.867   116638344.966                          47.000                                                                  
G16  20474583.828   107594681.397                          48.000                                                                  
G21  24444286.149   128455605.555                          40.000                                                                  
G23  21326728.192   112072722.679                          48.000                                                                  
G26  21991595.046   115566635.781                          45.000                                                                  
G27  20383201.859   107114487.236                          51.000                                                                  
G31  24143029.628   126872458.871                          42.000                                                                  
> 2018  6  8  1 40 32.0000000  0  9                     
G 4  23035336.310   121051498.627                          42.000                                                                  
G 8  22682497.245   119197343.109                          45.000                                                                  
G 9  22195274.461   116636971.086                          47.000                                                                  
G16  20474820.467   107595924.832                          48.000                                                                  
G21  24444282.843   128455588.362                          40.000                                                                  
G23  21326852.453   112073376.110                          48.000                                                                  
G26  21992026.922   115568905.213                          45.000                                                                  
G27  20382892.707   107112862.567                          51.000                                                                  
G31  24143588.911   126875397.715                          42.000                                                                  
> 2018  6  8  1 40 33.0000000  0  9                     
G 4  23035889.589   121054406.586                          42.000                                                                  
G 8  22681849.922   119193940.913                          45.000                                                                  
G 9  22195013.180   116635597.852                          47.000                                                                  
G16  20475057.178   107597168.603                          48.000                                                                  
G21  24444279.787   128455571.651                          40.000                                                                  
G23  21326976.929   112074030.214                          48.000                                                                  
G26  21992458.817   115571174.848                          45.000                                                                  
G27  20382583.662   107111238.555                          51.000                                                                  
G31  24144148.193   126878336.750                          42.000                                                                  
> 2018  6  8  1 40 34.0000000  0  9                     
G 4  23036443.064   121057314.695                          42.000                                                                  
G 8  22681202.617   119190539.098                          45.000                                                                  
G 9  22194751.953   116634225.311                          47.000                                                                  
G16  20475293.871   107598412.795                          48.000                                                                  
G21  24444276.625   128455555.535                          40.000                                                                  
G23  21327101.476   112074685.050                          48.000                                                                  
G26  21992890.747   115573444.720                          45.000                                                                  
G27  20382274.760   107109615.263                          51.000                                                                  
G31  24144707.512   126881276.037                          42.000                                                                  
> 2018  6  8  1 40 35.0000000  0  9                     
G 4  23036996.432   121060222.771                          42.000                                                                  
G 8  22680555.293   119187137.476                          45.000                                                                  
G 9  22194490.815   116632853.289                          47.000                                                                  
G16  20475530.654   107599657.215                          48.000                                                                  
G21  24444273.533   128455539.809                          40.000                                                                  
G23  21327226.237   112075340.457                          48.000                                                                  
G26  21993322.695   115575714.657                          45.000                                                                  
G27  20381965.966   107107992.498                          51.000                                                                  
G31  24145266.866   126884215.410                          42.000                                                                  
> 2018  6  8  1 40 36.0000000  0  9                     
G 4  23037549.692   121063130.956                          42.000                                                                  
G 8  22679908.059   119183736.189                          45.000                                                                  
G 9  22194229.802   116631481.892                          47.000                                                                  
G16  20475767.597   107600901.967                          48.000                                                                  
G21  24444270.406   128455524.603                          40.000                                                                  
G23  21327351.106   112075996.514                          48.000                                                                  
G26  21993754.714   115577984.772                          45.000                                                                  
G27  20381657.278   107106370.391                          51.000                                                                  
G31  24145826.130   126887154.970                          42.000                                                                  
> 2018  6  8  1 40 37.0000000  0  9                     
G 4  23038102.989   121066038.907                          42.000                                                                  
G 8  22679260.808   119180334.897                          44.000                                                                  
G 9  22193968.914   116630110.836                          46.000                                                                  
G16  20476004.487   107602146.760                          48.000                                                                  
G21  24444267.440   128455509.593                          40.000                                                                  
G23  21327476.064   112076652.953                          48.000                                                                  
G26  21994186.680   115580254.739                          45.000                                                                  
G27  20381348.734   107104748.635                          51.000                                                                  
G31  24146385.663   126890094.413                          42.000                                                                  
> 2018  6  8  1 40 38.0000000  0  9                     
G 4  23038656.410   121068946.957                          42.000                                                                  
G 8  22678613.663   119176933.959                          44.000                                                                  
G 9  22193708.134   116628740.437                          47.000                                                                  
G16  20476241.466   107603391.923                          48.000                                                                  
G21  24444264.634   128455495.111                          40.000                                                                  
G23  21327601.076   112077310.064                          48.000                                                                  
G26  21994618.628   115582524.919                          45.000                                                                  
G27  20381040.297   107103127.546                          51.000                                                                  
G31  24146944.999   126893034.061                          42.000                                                                  
> 2018  6  8  1 40 39.0000000  0  9                     
G 4  23039209.814   121071855.089                          42.000                                                                  
G 8  22677966.501   119173533.323                          44.000                                                                  
G 9  22193447.443   116627370.622                          47.000                                                                  
G16  20476478.427   107604637.400                          48.000                                                                  
G21  24444261.901   128455481.123                          40.000                                                                  
G23  21327726.231   112077967.824                          48.000                                                                  
G26  21995050.629   115584795.231                          45.000                                                                  
G27  20380731.984   107101507.076                          51.000                                                                  
G31  24147504.442   126895973.871                          42.000                                                                  
> 2018  6  8  1 40 40.0000000  0  9                     
G 4  23039763.343   121074763.518                          42.000                                                                  
G 8  22677319.321   119170133.228                          44.000                                                                  
G 9  22193186.930   116626001.675                          47.000                                                                  
G16  20476715.513   107605883.428                          48.000                                                                  
G21  24444259.256   128455467.836                          40.000                                                                  
G23  21327851.671   112078626.464                          48.000                                                                  
G26  21995482.809   115587065.948                          45.000                                                                  
G27  20380423.780   107099887.490                          51.000                                                                  
G31  24148063.939   126898914.083                          42.000                                                                  
> 2018  6  8  1 40 41.0000000  0  9                     
G 4  23040316.800   121077671.961                          42.000                                                                  
G 8  22676672.194   119166733.347                          44.000                                                                  
G 9  22192926.525   116624633.245                          47.000                                                                  
G16  20476952.670   107607129.703                          48.000                                                                  
G21  24444256.826   128455454.977                          40.000                                                                  
G23  21327977.112   112079285.676                          48.000                                                                  
G26  21995914.990   115589336.733                          45.000                                                                  
G27  20380115.718   107098268.443                          51.000                                                                  
G31  24148623.454   126901854.391                          42.000                                                                  
> 2018  6  8  1 40 42.0000000  0  9                     
G 4  23040870.239   121080580.217                          42.000                                                                  
G 8  22676025.174   119163333.542                          44.000                                                                  
G 9  22192666.245   116623265.211                          46.000                                                                  
G16  20477189.864   107608376.069                          48.000                                                                  
G21  24444254.431   128455442.368                          40.000                                                                  
G23  21328102.695   112079945.296                          48.000                                                                  
G26  21996347.080   115591607.439                          45.000                                                                  
G27  20379807.763   107096649.798                          51.000                                                                  
G31  24149183.148   126904794.632                          42.000                                                                  
> 2018  6  8  1 40 43.0000000  0  9                     
G 4  23041423.607   121083488.434                          42.000                                                                  
G 8  22675378.244   119159933.927                          45.000                                                                  
G 9  22192405.982   116621897.682                          47.000                                                                  
G16  20477427.075   107609622.652                          48.000                                                                  
G21  24444252.305   128455430.152                          40.000                                                                  
G23  21328228.314   112080605.479                          48.000                                                                  
G26  21996779.225   115593878.209                          45.000                                                                  
G27  20379499.933   107095031.679                          51.000                                                                  
G31  24149742.645   126907734.935                          42.000                                                                  
> 2018  6  8  1 40 44.0000000  0  9                     
G 4  23041976.957   121086396.965                          42.000                                                                  
G 8  22674731.421   119156534.830                          45.000                                                                  
G 9  22192145.863   116620530.974                          47.000                                                                  
G16  20477664.376   107610869.769                          49.000                                                                  
G21  24444250.071   128455418.628                          40.000                                                                  
G23  21328354.112   112081266.522                          48.000                                                                  
G26  21997211.494   115596149.343                          45.000                                                                  
G27  20379192.211   107093414.425                          51.000                                                                  
G31  24150302.285   126910675.628                          42.000                                                                  
> 2018  6  8  1 40 45.0000000  0  9                     
G 4  23042530.504   121089305.385                          42.000                                                                  
G 8  22674084.688   119153135.870                          45.000                                                                  
G 9  22191885.833   116619164.727                          47.000                                                                  
G16  20477901.748   107612117.042                          48.000                                                                  
G21  24444247.873   128455407.433                          40.000                                                                  
G23  21328479.964   112081928.056                          48.000                                                                  
G26  21997643.710   115598420.456                          45.000                                                                  
G27  20378884.613   107091797.632                          51.000                                                                  
G31  24150861.960   126913616.335                          42.000                                                                  
> 2018  6  8  1 40 46.0000000  0  9                     
G 4  23043084.015   121092214.316                          42.000                                                                  
G 8  22673437.990   119149737.644                          45.000                                                                  
G 9  22191626.035   116617799.542                          47.000                                                                  
G16  20478139.263   107613365.086                          48.000                                                                  
G21  24444245.926   128455397.189                          40.000                                                                  
G23  21328606.048   112082590.677                          48.000                                                                  
G26  21998076.016   115600692.189                          45.000                                                                  
G27  20378577.141   107090181.913                          51.000                                                                  
G31  24151421.815   126916557.639                          42.000                                                                  
> 2018  6  8  1 40 47.0000000  0  9                     
G 4  23043637.615   121095123.390                          42.000                                                                  
G 8  22672791.489   119146339.787                          45.000                                                                  
G 9  22191366.381   116616435.018                          47.000                                                                  
G16  20478376.832   107614613.512                          48.000                                                                  
G21  24444244.264   128455387.479                          40.000                                                                  
G23  21328732.310   112083254.010                          48.000                                                                  
G26  21998508.410   115602964.121                          45.000                                                                  
G27  20378269.794   107088566.898                          51.000                                                                  
G31  24151981.580   126919499.191                          42.000                                                                  
> 2018  6  8  1 40 48.0000000  0  9                     
G 4  23044191.162   121098032.508                          42.000                                                                  
G 8  22672144.952   119142942.227                          45.000                                                                  
G 9  22191106.815   116615071.110                          47.000                                                                  
G16  20478614.436   107615862.255                          48.000                                                                  
G21  24444242.727   128455378.247                          40.000                                                                  
G23  21328858.716   112083917.981                          48.000                                                                  
G26  21998940.823   115605236.206                          45.000                                                                  
G27  20377962.554   107086952.503                          51.000                                                                  
G31  24152541.363   126922440.900                          42.000                                                                  
> 2018  6  8  1 40 49.0000000  0  9                     
G 4  23044744.780   121100941.761                          42.000                                                                  
G 8  22671498.468   119139545.028                          45.000                                                                  
G 9  22190847.393   116613707.874                          47.000                                                                  
G16  20478852.183   107617111.376                          48.000                                                                  
G21  24444241.172   128455369.576                          40.000                                                                  
G23  21328985.246   112084582.666                          48.000                                                                  
G26  21999373.271   115607508.478                          45.000                                                                  
G27  20377655.439   107085338.803                          51.000                                                                  
G31  24153101.163   126925382.831                          42.000                                                                  
> 2018  6  8  1 40 50.0000000  0  9                     
G 4  23045298.326   121103850.668                          42.000                                                                  
G 8  22670851.967   119136147.720                          45.000                                                                  
G 9  22190588.060   116612344.840                          47.000                                                                  
G16  20479089.859   107618360.398                          48.000                                                                  
G21  24444239.403   128455360.984                          40.000                                                                  
G23  21329111.741   112085247.574                          48.000                                                                  
G26  21999805.612   115609780.522                          45.000                                                                  
G27  20377348.449   107083725.314                          51.000                                                                  
G31  24153660.839   126928324.527                          42.000                                                                  
> 2018  6  8  1 40 51.0000000  0  9                     
G 4  23045851.909   121106759.687                          42.000                                                                  
G 8  22670205.555   119132750.738                          45.000                                                                  
G 9  22190328.905   116610982.455                          47.000                                                                  
G16  20479327.589   107619609.780                          48.000                                                                  
G21  24444237.795   128455352.905                          40.000                                                                  
G23  21329238.414   112085913.183                          48.000                                                                  
G26  22000237.935   115612052.747                          45.000                                                                  
G27  20377041.567   107082112.503                          51.000                                                                  
G31  24154220.676   126931266.417                          42.000                                                                  
> 2018  6  8  1 40 52.0000000  0  9                     
G 4  23046405.419   121109668.679                          42.000                                                                  
G 8  22669559.108   119129353.961                          44.000                                                                  
G 9  22190069.822   116609620.598                          47.000                                                                  
G16  20479565.354   107620859.394                          48.000                                                                  
G21  24444236.348   128455345.229                          40.000                                                                  
G23  21329365.177   112086579.338                          48.000                                                                  
G26  22000670.401   115614325.067                          45.000                                                                  
G27  20376734.827   107080500.235                          51.000                                                                  
G31  24154780.423   126934208.413                          42.000                                                                  
> 2018  6  8  1 40 53.0000000  0  9                     
G 4  23046959.037   121112577.838                          42.000                                                                  
G 8  22668912.767   119125957.569                          44.000                                                                  
G 9  22189810.864   116608259.422                          47.000                                                                  
G16  20479803.244   107622109.411                          48.000                                                                  
G21  24444235.061   128455338.130                          40.000                                                                  
G23  21329492.101   112087246.224                          48.000                                                                  
G26  22001102.796   115616597.592                          45.000                                                                  
G27  20376428.195   107078888.680                          51.000                                                                  
G31  24155340.331   126937150.629                          42.000                                                                  
> 2018  6  8  1 40 54.0000000  0  9                     
G 4  23047512.566   121115487.212                          42.000                                                                  
G 8  22668266.534   119122561.643                          44.000                                                                  
G 9  22189552.103   116606899.041                          47.000                                                                  
G16  20480041.170   107623359.914                          48.000                                                                  
G21  24444233.667   128455331.692                          40.000                                                                  
G23  21329619.239   112087913.919                          48.000                                                                  
G26  22001535.298   115618870.445                          45.000                                                                  
G27  20376121.669   107077277.914                          51.000                                                                  
G31  24155900.221   126940093.197                          42.000                                                                  
> 2018  6  8  1 40 55.0000000  0  9                     
G 4  23048066.327   121118396.477                          42.000                                                                  
G 8  22667620.336   119119165.870                          44.000                                                                  
G 9  22189293.306   116605539.094                          47.000                                                                  
G16  20480279.132   107624610.567                          48.000                                                                  
G21  24444232.435   128455325.562                          40.000                                                                  
G23  21329746.395   112088582.093                          48.000                                                                  
G26  22001967.746   115621143.278                          45.000                                                                  
G27  20375815.287   107075667.624                          51.000                                                                  
G31  24156460.022   126943035.745                          42.000                                                                  
> 2018  6  8  1 40 56.0000000  0  9                     
G 4  23048620.070   121121305.924                          42.000                                                                  
G 8  22666974.157   119115770.508                          44.000                                                                  
G 9  22189034.616   116604179.872                          47.000                                                                  
G16  20480517.183   107625861.658                          48.000                                                                  
G21  24444231.309   128455320.022                          40.000                                                                  
G23  21329873.640   112089251.027                          48.000                                                                  
G26  22002400.319   115623416.390                          45.000                                                                  
G27  20375509.012   107074058.064                          51.000                                                                  
G31  24157019.947   126945978.586                          42.000                                                                  
> 2018  6  8  1 40 57.0000000  0  9                     
G 4  23049173.814   121124215.462                          42.000                                                                  
G 8  22666328.084   119112375.442                          44.000                                                                  
G 9  22188776.123   116602821.264                          47.000                                                                  
G16  20480755.359   107627113.074                          48.000                                                                  
G21  24444230.308   128455314.975                          40.000                                                                  
G23  21330001.082   112089920.610                          48.000                                                                  
G26  22002832.946   115625689.649                          45.000                                                                  
G27  20375202.862   107072449.147                          51.000                                                                  
G31  24157580.034   126948921.603                          42.000                                                                  
> 2018  6  8  1 40 58.0000000  0  9                     
G 4  23049727.503   121127125.088                          42.000                                                                  
G 8  22665682.155   119108980.723                          45.000                                                                  
G 9  22188517.701   116601463.304                          47.000                                                                  
G16  20480993.571   107628364.839                          49.000                                                                  
G21  24444229.307   128455310.494                          40.000                                                                  
G23  21330128.667   112090590.873                          48.000                                                                  
G26  22003265.519   115627963.095                          45.000                                                                  
G27  20374896.819   107070840.896                          51.000                                                                  
G31  24158140.246   126951864.802                          42.000                                                                  
> 2018  6  8  1 40 59.0000000  0  9                     
G 4  23050281.264   121130034.840                          42.000                                                                  
G 8  22665036.297   119105586.358                          45.000                                                                  
G 9  22188259.476   116600106.030                          47.000                                                                  
G16  20481231.891   107629616.992                          49.000                                                                  
G21  24444228.539   128455306.506                          40.000                                                                  
G23  21330256.306   112091261.846                          48.000                                                                  
G26  22003698.200   115630236.761                          45.000                                                                  
G27  20374590.919   107069233.341                          51.000                                                                  
G31  24158700.529   126954808.244                          42.000                                                                  
> 2018  6  8  1 41  0.0000000  0  9                     
G 4  23050834.900   121132944.425                          42.000                                                                  
G 8  22664390.457   119102192.049                          45.000                                                                  
G 9  22188001.215   116598749.118                          47.000                                                                  
G16  20481470.228   107630869.206                          49.000                                                                  
G21  24444227.878   128455302.802                          40.000                                                                  
G23  21330384.069   112091933.216                          48.000                                                                  
G26  22004130.880   115632510.325                          45.000                                                                  
G27  20374285.127   107067626.170                          51.000                                                                  
G31  24159260.669   126957751.596                          42.000                                                                  
> 2018  6  8  1 41  1.0000000  0  9                     
G 4  23051388.572   121135854.180                          42.000                                                                  
G 8  22663744.742   119098798.148                          45.000                                                                  
G 9  22187743.097   116597392.919                          47.000                                                                  
G16  20481708.618   107632121.863                          49.000                                                                  
G21  24444227.270   128455299.657                          40.000                                                                  
G23  21330511.975   112092605.348                          48.000                                                                  
G26  22004563.579   115634784.156                          45.000                                                                  
G27  20373979.442   107066019.741                          51.000                                                                  
G31  24159820.738   126960695.252                          42.000                                                                  
> 2018  6  8  1 41  2.0000000  0  9                     
G 4  23051942.351   121138763.829                          42.000                                                                  
G 8  22663098.973   119095404.374                          45.000                                                                  
G 9  22187485.122   116596037.180                          47.000                                                                  
G16  20481947.045   107633374.667                          48.000                                                                  
G21  24444226.716   128455296.863                          40.000                                                                  
G23  21330639.989   112093277.959                          48.000                                                                  
G26  22004996.241   115637057.981                          45.000                                                                  
G27  20373673.899   107064413.782                          51.000                                                                  
G31  24160380.950   126963638.883                          42.000                                                                  
> 2018  6  8  1 41  3.0000000  0  9                     
G 4  23052496.040   121141673.737                          42.000                                                                  
G 8  22662453.383   119092011.060                          45.000                                                                  
G 9  22187227.325   116594682.222                          47.000                                                                  
G16  20482185.560   107634627.976                          48.000                                                                  
G21  24444226.341   128455294.736                          40.000                                                                  
G23  21330768.110   112093951.400                          48.000                                                                  
G26  22005428.958   115639332.137                          45.000                                                                  
G27  20373368.464   107062808.642                          51.000                                                                  
G31  24160941.126   126966582.853                          42.000                                                                  
> 2018  6  8  1 41  4.0000000  0  9                     
G 4  23053049.783   121144583.615                          42.000                                                                  
G 8  22661807.829   119088617.972                          45.000                                                                  
G 9  22186969.600   116593327.798                          47.000                                                                  
G16  20482424.130   107635881.514                          49.000                                                                  
G21  24444226.162   128455292.998                          40.000                                                                  
G23  21330896.374   112094625.408                          48.000                                                                  
G26  22005861.710   115641606.355                          45.000                                                                  
G27  20373063.154   107061204.044                          52.000                                                                  
G31  24161501.284   126969526.930                          41.000                                                                  
> 2018  6  8  1 41  5.0000000  0  9                     
G 4  23053603.616   121147493.875                          42.000                                                                  
G 8  22661162.311   119085225.482                          45.000                                                                  
G 9  22186712.054   116591974.286                          47.000                                                                  
G16  20482662.824   107637135.665                          49.000                                                                  
G21  24444225.859   128455292.071                          40.000                                                                  
G23  21331024.834   112095300.349                          48.000                                                                  
G26  22006294.551   115643881.031                          45.000                                                                  
G27  20372757.969   107059600.371                          51.000                                                                  
G31  24162061.531   126972471.458                          42.000                                                                  
> 2018  6  8  1 41  6.0000000  0  9                     
G 4  23054157.377   121150403.935                          42.000                                                                  
G 8  22660516.757   119081833.054                          45.000                                                                  
G 9  22186454.544   116590621.145                          47.000                                                                  
G16  20482901.518   107638389.883                          48.000                                                                  
G21  24444225.644   128455291.379                          39.000                                                                  
G23  21331153.295   112095975.700                          48.000                                                                  
G26  22006727.392   115646155.613                          45.000                                                                  
G27  20372452.891   107057997.082                          51.000                                                                  
G31  24162621.761   126975415.913                          42.000                                                                  
> 2018  6  8  1 41  7.0000000  0  9                     
G 4  23054711.156   121153314.162                          43.000                                                                  
G 8  22659871.363   119078441.020                          45.000                                                                  
G 9  22186197.212   116589268.705                          47.000                                                                  
G16  20483140.302   107639644.515                          48.000                                                                  
G21  24444225.483   128455291.244                          40.000                                                                  
G23  21331281.970   112096651.777                          48.000                                                                  
G26  22007160.305   115648430.432                          45.000                                                                  
G27  20372147.938   107056394.516                          51.000                                                                  
G31  24163182.223   126978360.608                          42.000                                                                  
> 2018  6  8  1 41  8.0000000  0  9                     
G 4  23055264.827   121156224.463                          43.000                                                                  
G 8  22659225.916   119075049.317                          45.000                                                                  
G 9  22185939.987   116587916.904                          47.000                                                                  
G16  20483379.086   107640899.488                          48.000                                                                  
G21  24444225.644   128455291.646                          40.000                                                                  
G23  21331410.716   112097328.525                          48.000                                                                  
G26  22007593.254   115650705.434                          45.000                                                                  
G27  20371843.110   107054792.603                          51.000                                                                  
G31  24163742.613   126981305.509                          42.000                                                                  
> 2018  6  8  1 41  9.0000000  0  9                     
G 4  23055818.588   121159134.735                          42.000                                                                  
G 8  22658580.505   119071657.781                          45.000                                                                  
G 9  22185682.798   116586565.579                          47.000                                                                  
G16  20483617.870   107642154.657                          49.000                                                                  
G21  24444225.769   128455292.409                          40.000                                                                  
G23  21331539.605   112098005.790                          48.000                                                                  
G26  22008026.220   115652980.456                          45.000                                                                  
G27  20371538.390   107053191.201                          52.000                                                                  
G31  24164303.111   126984250.463                          42.000                                                                  
> 2018  6  8  1 41 10.0000000  0  9                     
G 4  23056372.349   121162045.033                          42.000                                                                  
G 8  22657935.129   119068266.539                          45.000                                                                  
G 9  22185425.663   116585214.855                          47.000                                                                  
G16  20483856.743   107643410.132                          48.000                                                                  
G21  24444225.912   128455293.647                          40.000                                                                  
G23  21331668.602   112098683.691                          48.000                                                                  
G26  22008459.240   115655255.613                          45.000                                                                  
G27  20371233.813   107051590.410                          51.000                                                                  
G31  24164863.591   126987195.537                          42.000                                                                  
> 2018  6  8  1 41 11.0000000  0  9                     
G 4  23056926.182   121164955.143                          42.000                                                                  
G 8  22657289.843   119064875.311                          45.000                                                                  
G 9  22185168.635   116583864.483                          47.000                                                                  
G16  20484095.652   107644665.641                          49.000                                                                  
G21  24444226.180   128455295.082                          40.000                                                                  
G23  21331797.580   112099361.957                          48.000                                                                  
G26  22008892.207   115657530.656                          45.000                                                                  
G27  20370929.342   107049989.985                          52.000                                                                  
G31  24165423.928   126990140.526                          42.000                                                                  
> 2018  6  8  1 41 12.0000000  0  9                     
G 4  23057480.032   121167865.441                          43.000                                                                  
G 8  22656644.539   119061484.547                          45.000                                                                  
G 9  22184911.768   116582514.834                          47.000                                                                  
G16  20484334.650   107645921.606                          49.000                                                                  
G21  24444226.556   128455297.157                          40.000                                                                  
G23  21331926.773   112100041.018                          48.000                                                                  
G26  22009325.137   115659805.989                          45.000                                                                  
G27  20370624.979   107048390.332                          52.000                                                                  
G31  24165984.532   126993085.806                          42.000                                                                  
> 2018  6  8  1 41 13.0000000  0  9                     
G 4  23058033.954   121170776.044                          42.000                                                                  
G 8  22655999.307   119058094.318                          45.000                                                                  
G 9  22184655.097   116581166.053                          47.000                                                                  
G16  20484573.755   107647178.134                          48.000                                                                  
G21  24444226.949   128455299.953                          39.000                                                                  
G23  21332056.145   112100720.956                          48.000                                                                  
G26  22009758.157   115662081.695                          45.000                                                                  
G27  20370320.759   107046791.533                          52.000                                                                  
G31  24166545.173   126996031.493                          42.000                                                                  
> 2018  6  8  1 41 14.0000000  0  9                     
G 4  23058587.912   121173686.931                          42.000                                                                  
G 8  22655354.181   119054704.601                          45.000                                                                  
G 9  22184398.516   116579818.096                          47.000                                                                  
G16  20484812.914   107648435.187                          48.000                                                                  
G21  24444227.467   128455303.451                          40.000                                                                  
G23  21332185.678   112101401.762                          48.000                                                                  
G26  22010191.231   115664357.788                          45.000                                                                  
G27  20370016.646   107045193.594                          52.000                                                                  
G31  24167105.849   126998977.574                          42.000                                                                  
> 2018  6  8  1 41 15.0000000  0  9                     
G 4  23059141.780   121176598.013                          43.000                                                                  
G 8  22654709.145   119051315.316                          45.000                                                                  
G 9  22184142.238   116578470.873                          47.000                                                                  
G16  20485052.180   107649692.674                          48.000                                                                  
G21  24444228.146   128455307.559                          40.000                                                                  
G23  21332315.389   112102083.326                          48.000                                                                  
G26  22010624.448   115666634.136                          45.000                                                                  
G27  20369712.658   107043596.394                          52.000                                                                  
G31  24167666.615   127001923.904                          42.000                                                                  
> 2018  6  8  1 41 16.0000000  0  9                     
G 4  23059695.684   121179508.950                          43.000                                                                  
G 8  22654064.199   119047926.137                          45.000                                                                  
G 9  22183886.014   116577124.064                          47.000                                                                  
G16  20485291.500   107650950.291                          48.000                                                                  
G21  24444229.039   128455311.940                          40.000                                                                  
G23  21332445.225   112102765.345                          48.000                                                                  
G26  22011057.646   115668910.450                          45.000                                                                  
G27  20369408.796   107041999.643                          52.000                                                                  
G31  24168227.309   127004870.231                          42.000                                                                  
> 2018  6  8  1 41 17.0000000  0  9                     
G 4  23060249.588   121182419.850                          43.000                                                                  
G 8  22653419.324   119044537.119                          45.000                                                                  
G 9  22183629.844   116575777.742                          47.000                                                                  
G16  20485530.856   107652208.101                          48.000                                                                  
G21  24444230.022   128455316.706                          40.000                                                                  
G23  21332575.169   112103447.877                          48.000                                                                  
G26  22011490.809   115671186.784                          45.000                                                                  
G27  20369105.040   107040403.392                          52.000                                                                  
G31  24168788.057   127007816.581                          42.000                                                                  
> 2018  6  8  1 41 18.0000000  0  9                     
G 4  23060803.456   121185330.597                          42.000                                                                  
G 8  22652774.359   119041148.230                          44.000                                                                  
G 9  22183373.781   116574431.846                          47.000                                                                  
G16  20485770.211   107653466.032                          48.000                                                                  
G21  24444231.130   128455321.771                          39.000                                                                  
G23  21332705.184   112104130.873                          48.000                                                                  
G26  22011924.026   115673463.082                          45.000                                                                  
G27  20368801.410   107038807.586                          51.000                                                                  
G31  24169348.841   127010762.917                          42.000                                                                  
> 2018  6  8  1 41 19.0000000  0  9                     
G 4  23061357.432   121188241.482                          43.000                                                                  
G 8  22652129.538   119037759.690                          45.000                                                                  
G 9  22183117.861   116573086.612                          47.000                                                                  
G16  20486009.674   107654724.329                          48.000                                                                  
G21  24444232.220   128455327.375                          40.000                                                                  
G23  21332835.234   112104814.564                          48.000                                                                  
G26  22012357.225   115675739.583                          45.000                                                                  
G27  20368497.904   107037212.469                          52.000                                                                  
G31  24169909.553   127013709.476                          42.000                                                                  
> 2018  6  8  1 41 20.0000000  0  9                     
G 4  23061911.336   121191152.581                          43.000                                                                  
G 8  22651484.841   119034371.600                          45.000                                                                  
G 9  22182862.066   116571742.165                          47.000                                                                  
G16  20486249.191   107655983.110                          48.000                                                                  
G21  24444233.364   128455333.623                          40.000                                                                  
G23  21332965.482   112105499.062                          48.000                                                                  
G26  22012790.459   115678016.395                          45.000                                                                  
G27  20368194.524   107035618.137                          52.000                                                                  
G31  24170470.175   127016656.361                          42.000                                                                  
> 2018  6  8  1 41 21.0000000  0  9                     
G 4  23062465.293   121194063.712                          43.000                                                                  
G 8  22650840.145   119030983.758                          45.000                                                                  
G 9  22182606.342   116570398.253                          47.000                                                                  
G16  20486488.778   107657242.141                          48.000                                                                  
G21  24444234.829   128455340.293                          40.000                                                                  
G23  21333095.854   112106184.145                          48.000                                                                  
G26  22013223.747   115680293.310                          45.000                                                                  
G27  20367891.251   107034024.379                          52.000                                                                  
G31  24171030.941   127019603.351                          42.000                                                                  
> 2018  6  8  1 41 22.0000000  0  9                     
G 4  23063019.376   121196975.181                          43.000                                                                  
G 8  22650195.502   119027596.513                          45.000                                                                  
G 9  22182350.690   116569055.282                          47.000                                                                  
G16  20486728.473   107658501.803                          48.000                                                                  
G21  24444236.294   128455347.773                          40.000                                                                  
G23  21333226.405   112106870.175                          48.000                                                                  
G26  22013657.071   115682570.683                          45.000                                                                  
G27  20367588.103   107032431.566                          52.000                                                                  
G31  24171591.725   127022550.811                          42.000                                                                  
> 2018  6  8  1 41 23.0000000  0  9                     
G 4  23063573.441   121199886.333                          43.000                                                                  
G 8  22649550.823   119024209.173                          45.000                                                                  
G 9  22182095.145   116567712.508                          47.000                                                                  
G16  20486968.186   107659761.374                          48.000                                                                  
G21  24444237.563   128455355.317                          40.000                                                                  
G23  21333356.956   112107556.442                          48.000                                                                  
G26  22014090.305   115684847.788                          45.000                                                                  
G27  20367285.080   107030838.968                          52.000                                                                  
G31  24172152.562   127025498.033                          42.000                                                                  
> 2018  6  8  1 41 24.0000000  0  9                     
G 4  23064127.523   121202797.710                          43.000                                                                  
G 8  22648906.287   119020822.295                          45.000                                                                  
G 9  22181839.725   116566370.511                          47.000                                                                  
G16  20487207.971   107661021.426                          48.000                                                                  
G21  24444239.010   128455363.516                          40.000                                                                  
G23  21333487.722   112108243.514                          48.000                                                                  
G26  22014523.701   115687125.205                          45.000                                                                  
G27  20366982.182   107029247.170                          52.000                                                                  
G31  24172713.381   127028445.572                          42.000                                                                  
> 2018  6  8  1 41 25.0000000  0  9                     
G 4  23064681.588   121205708.839                          43.000                                                                  
G 8  22648261.752   119017435.413                          45.000                                                                  
G 9  22181584.431   116565028.828                          47.000                                                                  
G16  20487447.773   107662281.496                          49.000                                                                  
G21  24444240.761   128455371.920                          40.000                                                                  
G23  21333618.559   112108930.938                          48.000                                                                  
G26  22014957.114   115689402.469                          45.000                                                                  
G27  20366679.392   107027655.707                          52.000                                                                  
G31  24173274.129   127031392.981                          42.000                                                                  
> 2018  6  8  1 41 26.0000000  0  9                     
G 4  23065235.778   121208620.572                          43.000                                                                  
G 8  22647617.359   119014049.379                          45.000                                                                  
G 9  22181329.333   116563688.284                          47.000                                                                  
G16  20487687.772   107663542.411                          49.000                                                                  
G21  24444242.656   128455381.328                          40.000                                                                  
G23  21333749.574   112109619.541                          48.000                                                                  
G26  22015390.581   115691680.446                          45.000                                                                  
G27  20366376.726   107026065.415                          52.000                                                                  
G31  24173835.020   127034341.099                          42.000                                                                  
> 2018  6  8  1 41 27.0000000  0  9                     
G 4  23065789.950   121211532.152                          43.000                                                                  
G 8  22646973.056   119010663.416                          45.000                                                                  
G 9  22181074.342   116562348.128                          47.000                                                                  
G16  20487927.753   107664803.423                          49.000                                                                  
G21  24444244.353   128455390.997                          40.000                                                                  
G23  21333880.679   112110308.565                          48.000                                                                  
G26  22015824.083   115693958.326                          45.000                                                                  
G27  20366074.186   107024475.514                          52.000                                                                  
G31  24174395.982   127037289.166                          42.000                                                                  
> 2018  6  8  1 41 28.0000000  0  9                     
G 4  23066344.104   121214443.890                          43.000                                                                  
G 8  22646328.788   119007277.852                          45.000                                                                  
G 9  22180819.458   116561008.684                          47.000                                                                  
G16  20488167.841   107666064.845                          49.000                                                                  
G21  24444246.319   128455401.265                          40.000                                                                  
G23  21334011.910   112110998.330                          48.000                                                                  
G26  22016257.550   115696236.465                          45.000                                                                  
G27  20365771.753   107022886.354                          52.000                                                                  
G31  24174957.087   127040237.471                          42.000                                                                  
> 2018  6  8  1 41 29.0000000  0  9                     
G 4  23066898.276   121217355.738                          43.000                                                                  
G 8  22645684.699   119003892.652                          45.000                                                                  
G 9  22180564.699   116559669.903                          47.000                                                                  
G16  20488407.965   107667326.626                          49.000                                                                  
G21  24444248.338   128455412.046                          40.000                                                                  
G23  21334143.300   112111688.771                          48.000                                                                  
G26  22016691.106   115698514.776                          45.000                                                                  
G27  20365469.462   107021297.864                          52.000                                                                  
G31  24175518.389   127043186.001                          42.000                                                                  
> 2018  6  8  1 41 30.0000000  0  9                     
G 4  23067452.466   121220267.556                          43.000                                                                  
G 8  22645040.521   119000507.639                          45.000                                                                  
G 9  22180310.066   116558331.622                          47.000                                                                  
G16  20488648.107   107668588.621                          48.000                                                                  
G21  24444250.446   128455423.212                          40.000                                                                  
G23  21334274.888   112112379.763                          48.000                                                                  
G26  22017124.591   115700793.158                          45.000                                                                  
G27  20365167.279   107019709.902                          52.000                                                                  
G31  24176079.583   127046134.582                          42.000                                                                  
> 2018  6  8  1 41 31.0000000  0  9                     
G 4  23068006.531   121223179.412                          43.000                                                                  
G 8  22644396.450   118997122.920                          45.000                                                                  
G 9  22180055.539   116556993.933                          47.000                                                                  
G16  20488888.284   107669850.906                          49.000                                                                  
G21  24444252.644   128455434.858                          40.000                                                                  
G23  21334406.458   112113071.374                          48.000                                                                  
G26  22017558.147   115703071.661                          45.000                                                                  
G27  20364865.203   107018122.553                          52.000                                                                  
G31  24176640.760   127049083.304                          42.000                                                                  
> 2018  6  8  1 41 32.0000000  0  9                     
G 4  23068560.756   121226091.485                          43.000                                                                  
G 8  22643752.557   118993738.653                          45.000                                                                  
G 9  22179801.138   116555657.028                          47.000                                                                  
G16  20489128.569   107671113.675                          49.000                                                                  
G21  24444255.092   128455447.148                          40.000                                                                  
G23  21334538.224   112113763.795                          48.000                                                                  
G26  22017991.721   115705350.468                          45.000                                                                  
G27  20364563.271   107016536.005                          52.000                                                                  
G31  24177202.044   127052032.360                          42.000                                                                  
> 2018  6  8  1 41 33.0000000  0  9                     
G 4  23069114.964   121229003.473                          43.000                                                                  
G 8  22643108.522   118990354.542                          45.000                                                                  
G 9  22179546.826   116554320.595                          47.000                                                                  
G16  20489368.836   107672376.618                          49.000                                                                  
G21  24444257.540   128455459.754                          40.000                                                                  
G23  21334670.097   112114456.713                          48.000                                                                  
G26  22018425.241   115707629.302                          45.000                                                                  
G27  20364261.445   107014949.933                          52.000                                                                  
G31  24177763.203   127054981.437                          42.000                                                                  
> 2018  6  8  1 41 34.0000000  0  9                     
G 4  23069669.172   121231915.778                          43.000                                                                  
G 8  22642464.665   118986970.970                          45.000                                                                  
G 9  22179292.639   116552985.001                          47.000                                                                  
G16  20489609.282   107673640.115                          49.000                                                                  
G21  24444260.310   128455473.130                          40.000                                                                  
G23  21334802.167   112115150.522                          48.000                                                                  
G26  22018858.904   115709908.503                          45.000                                                                  
G27  20363959.744   107013364.747                          52.000                                                                  
G31  24178324.469   127057930.924                          42.000                                                                  
> 2018  6  8  1 41 35.0000000  0  9                     
G 4  23070223.326   121234827.995                          43.000                                                                  
G 8  22641820.862   118983587.557                          45.000                                                                  
G 9  22179038.577   116551649.883                          47.000                                                                  
G16  20489849.709   107674903.774                          48.000                                                                  
G21  24444263.026   128455486.822                          40.000                                                                  
G23  21334934.255   112115844.821                          48.000                                                                  
G26  22019292.693   115712187.730                          45.000                                                                  
G27  20363658.169   107011780.030                          52.000                                                                  
G31  24178885.699   127060880.406                          42.000                                                                  
> 2018  6  8  1 41 36.0000000  0  9                     
G 4  23070777.498   121237740.218                          43.000                                                                  
G 8  22641177.077   118980204.384                          45.000                                                                  
G 9  22178784.623   116550315.299                          47.000                                                                  
G16  20490090.191   107676167.679                          48.000                                                                  
G21  24444265.725   128455500.954                          40.000                                                                  
G23  21335066.414   112116539.702                          48.000                                                                  
G26  22019726.428   115714467.028                          45.000                                                                  
G27  20363356.700   107010195.901                          52.000                                                                  
G31  24179447.054   127063830.005                          42.000                                                                  
> 2018  6  8  1 41 37.0000000  0  9                     
G 4  23071331.670   121240652.397                          43.000                                                                  
G 8  22640533.346   118976821.429                          45.000                                                                  
G 9  22178530.740   116548981.245                          47.000                                                                  
G16  20490330.761   107677431.824                          48.000                                                                  
G21  24444268.441   128455515.459                          40.000                                                                  
G23  21335198.681   112117235.128                          48.000                                                                  
G26  22020160.216   115716746.381                          45.000                                                                  
G27  20363055.357   107008612.282                          52.000                                                                  
G31  24180008.338   127066779.662                          42.000                                                                  
> 2018  6  8  1 41 38.0000000  0  9                     
G 4  23071885.842   121243564.488                          43.000                                                                  
G 8  22639889.596   118973438.609                          45.000                                                                  
G 9  22178276.875   116547647.638                          47.000                                                                  
G16  20490571.314   107678696.120                          49.000                                                                  
G21  24444271.246   128455530.287                          40.000                                                                  
G23  21335331.037   112117931.041                          48.000                                                                  
G26  22020593.986   115719025.723                          45.000                                                                  
G27  20362754.139   107007029.153                          52.000                                                                  
G31  24180569.622   127069729.332                          42.000                                                                  
> 2018  6  8  1 41 39.0000000  0  9                     
G 4  23072439.996   121246476.679                          43.000                                                                  
G 8  22639245.972   118970056.123                          45.000                                                                  
G 9  22178023.188   116546314.697                          47.000                                                                  
G16  20490811.974   107679960.767                          49.000                                                                  
G21  24444274.159   128455545.660                          40.000                                                                  
G23  21335463.607   112118627.638                          48.000                                                                  
G26  22021027.721   115721305.261                          45.000                                                                  
G27  20362453.046   107005446.687                          52.000                                                                  
G31  24181130.888   127072679.201                          42.000                                                                  
> 2018  6  8  1 41 40.0000000  0  9                     
G 4  23072994.222   121249389.397                          43.000                                                                  
G 8  22638602.473   118966674.394                          45.000                                                                  
G 9  22177769.770   116544982.819                          47.000                                                                  
G16  20491052.795   107681226.198                          49.000                                                                  
G21  24444277.411   128455561.988                          40.000                                                                  
G23  21335596.356   112119325.329                          48.000                                                                  
G26  22021461.635   115723585.401                          45.000                                                                  
G27  20362152.060   107003865.312                          52.000                                                                  
G31  24181692.315   127075629.712                          42.000                                                                  
> 2018  6  8  1 41 41.0000000  0  9                     
G 4  23073548.572   121252302.184                          43.000                                                                  
G 8  22637959.027   118963292.982                          45.000                                                                  
G 9  22177516.405   116543651.548                          47.000                                                                  
G16  20491293.634   107682491.940                          49.000                                                                  
G21  24444280.717   128455578.776                          40.000                                                                  
G23  21335729.266   112120023.672                          48.000                                                                  
G26  22021895.584   115725865.693                          45.000                                                                  
G27  20361851.217   107002284.569                          52.000                                                                  
G31  24182253.724   127078580.362                          42.000                                                                  
> 2018  6  8  1 41 42.0000000  0  9                     
G 4  23074102.887   121255215.002                          43.000                                                                  
G 8  22637315.671   118959911.837                          45.000                                                                  
G 9  22177263.165   116542320.869                          47.000                                                                  
G16  20491534.597   107683757.967                          48.000                                                                  
G21  24444284.076   128455596.039                          40.000                                                                  
G23  21335862.247   112120722.632                          48.000                                                                  
G26  22022329.658   115728146.118                          45.000                                                                  
G27  20361550.464   107000704.442                          51.000                                                                  
G31  24182815.133   127081531.164                          41.000                                                                  
> 2018  6  8  1 41 43.0000000  0  9                     
G 4  23074657.113   121258127.366                          43.000                                                                  
G 8  22636672.207   118956530.499                          45.000                                                                  
G 9  22177009.979   116540990.299                          47.000                                                                  
G16  20491775.436   107685023.800                          48.000                                                                  
G21  24444287.417   128455613.285                          40.000                                                                  
G23  21335995.389   112121421.723                          48.000                                                                  
G26  22022763.608   115730426.172                          45.000                                                                  
G27  20361249.853   106999124.423                          51.000                                                                  
G31  24183376.363   127084481.608                          41.000                                                                  
> 2018  6  8  1 41 44.0000000  0  9                     
G 4  23075211.357   121261040.249                          43.000                                                                  
G 8  22636028.815   118953149.888                          45.000                                                                  
G 9  22176757.025   116539660.774                          47.000                                                                  
G16  20492016.471   107686290.396                          48.000                                                                  
G21  24444290.884   128455631.458                          40.000                                                                  
G23  21336128.620   112122121.900                          48.000                                                                  
G26  22023197.592   115732706.823                          45.000                                                                  
G27  20360949.350   106997545.494                          52.000                                                                  
G31  24183937.754   127087432.662                          41.000                                                                  
> 2018  6  8  1 41 45.0000000  0  9                     
G 4  23075765.600   121263952.801                          43.000                                                                  
G 8  22635385.387   118949769.189                          45.000                                                                  
G 9  22176504.053   116538331.481                          47.000                                                                  
G16  20492257.453   107687556.910                          49.000                                                                  
G21  24444294.243   128455649.731                          40.000                                                                  
G23  21336261.941   112122822.323                          48.000                                                                  
G26  22023631.506   115734987.227                          45.000                                                                  
G27  20360648.990   106995966.796                          52.000                                                                  
G31  24184499.253   127090383.485                          41.000                                                                  
> 2018  6  8  1 41 46.0000000  0  9                     
G 4  23076319.844   121266865.502                          43.000                                                                  
G 8  22634742.031   118946388.881                          45.000                                                                  
G 9  22176251.206   116537002.897                          47.000                                                                  
G16  20492498.524   107688823.829                          48.000                                                                  
G21  24444297.889   128455668.558                          40.000                                                                  
G23  21336395.351   112123523.492                          48.000                                                                  
G26  22024065.562   115737267.889                          45.000                                                                  
G27  20360348.736   106994388.840                          52.000                                                                  
G31  24185060.840   127093334.601                          41.000                                                                  
> 2018  6  8  1 41 47.0000000  0  9                     
G 4  23076874.212   121269778.635                          43.000                                                                  
G 8  22634098.782   118943009.238                          45.000                                                                  
G 9  22175998.485   116535675.280                          47.000                                                                  
G16  20492739.738   107690091.431                          48.000                                                                  
G21  24444301.552   128455688.263                          40.000                                                                  
G23  21336528.958   112124225.662                          48.000                                                                  
G26  22024499.744   115739549.044                          45.000                                                                  
G27  20360048.590   106992811.853                          52.000                                                                  
G31  24185622.607   127096286.201                          41.000                                                                  
> 2018  6  8  1 41 48.0000000  0  9                     
G 4  23077428.438   121272691.474                          43.000                                                                  
G 8  22633455.587   118939629.552                          45.000                                                                  
G 9  22175745.817   116534347.923                          47.000                                                                  
G16  20492980.988   107691358.987                          48.000                                                                  
G21  24444305.251   128455708.100                          40.000                                                                  
G23  21336662.618   112124928.116                          48.000                                                                  
G26  22024933.765   115741830.008                          45.000                                                                  
G27  20359748.587   106991235.156                          52.000                                                                  
G31  24186184.391   127099237.626                          41.000                                                                  
> 2018  6  8  1 41 49.0000000  0  9                     
G 4  23077982.878   121275604.518                          43.000                                                                  
G 8  22632812.498   118936250.303                          45.000                                                                  
G 9  22175493.345   116533021.323                          47.000                                                                  
G16  20493222.255   107692627.009                          48.000                                                                  
G21  24444309.164   128455728.550                          40.000                                                                  
G23  21336796.350   112125631.359                          48.000                                                                  
G26  22025367.893   115744111.248                          45.000                                                                  
G27  20359448.692   106989659.225                          51.000                                                                  
G31  24186746.282   127102189.361                          42.000                                                                  
> 2018  6  8  1 41 50.0000000  0  9                     
G 4  23078537.211   121278517.660                          43.000                                                                  
G 8  22632169.464   118932871.397                          45.000                                                                  
G 9  22175241.017   116531695.378                          47.000                                                                  
G16  20493463.594   107693895.371                          48.000                                                                  
G21  24444313.149   128455749.531                          40.000                                                                  
G23  21336930.261   112126335.275                          48.000                                                                  
G26  22025801.985   115746392.691                          45.000                                                                  
G27  20359148.921   106988083.969                          51.000                                                                  
G31  24187308.102   127105141.281                          42.000                                                                  
> 2018  6  8  1 41 51.0000000  0  9                     
G 4  23079091.722   121281431.282                          43.000                                                                  
G 8  22631526.590   118929493.207                          45.000                                                                  
G 9  22174988.903   116530370.448                          47.000                                                                  
G16  20493705.058   107695164.470                          48.000                                                                  
G21  24444317.241   128455771.425                          40.000                                                                  
G23  21337064.457   112127040.247                          48.000                                                                  
G26  22026236.202   115748674.691                          45.000                                                                  
G27  20358849.257   106986509.755                          51.000                                                                  
G31  24187870.047   127108093.794                          42.000                                                                  
> 2018  6  8  1 41 52.0000000  0  9                     
G 4  23079646.073   121284344.441                          43.000                                                                  
G 8  22630883.734   118926114.794                          45.000                                                                  
G 9  22174736.789   116529045.606                          47.000                                                                  
G16  20493946.504   107696433.352                          48.000                                                                  
G21  24444321.136   128455793.275                          40.000                                                                  
G23  21337198.600   112127745.327                          48.000                                                                  
G26  22026670.330   115750956.304                          45.000                                                                  
G27  20358549.737   106984935.646                          51.000                                                                  
G31  24188431.849   127111045.937                          42.000                                                                  
> 2018  6  8  1 41 53.0000000  0  9                     
G 4  23080200.477   121287257.991                          43.000                                                                  
G 8  22630241.057   118922737.012                          45.000                                                                  
G 9  22174484.836   116527721.707                          47.000                                                                  
G16  20494188.094   107697702.874                          49.000                                                                  
G21  24444325.353   128455815.938                          40.000                                                                  
G23  21337333.010   112128451.382                          48.000                                                                  
G26  22027104.619   115753238.401                          45.000                                                                  
G27  20358250.323   106983362.497                          51.000                                                                  
G31  24188993.794   127113998.561                          42.000                                                                  
> 2018  6  8  1 41 54.0000000  0  9                     
G 4  23080754.828   121290171.399                          43.000                                                                  
G 8  22629598.379   118919359.330                          45.000                                                                  
G 9  22174233.079   116526398.229                          47.000                                                                  
G16  20494429.754   107698972.507                          48.000                                                                  
G21  24444329.624   128455838.873                          40.000                                                                  
G23  21337467.493   112129157.880                          48.000                                                                  
G26  22027538.889   115755520.437                          45.000                                                                  
G27  20357951.035   106981789.783                          51.000                                                                  
G31  24189555.578   127116951.165                          41.000                                                                  
> 2018  6  8  1 41 55.0000000  0  9                     
G 4  23081309.179   121293084.720                          43.000                                                                  
G 8  22628955.613   118915981.795                          45.000                                                                  
G 9  22173981.304   116525075.216                          47.000                                                                  
G16  20494671.433   107700242.301                          48.000                                                                  
G21  24444333.931   128455862.155                          40.000                                                                  
G23  21337602.082   112129864.870                          48.000                                                                  
G26  22027973.107   115757802.475                          45.000                                                                  
G27  20357651.854   106980217.552                          51.000                                                                  
G31  24190117.238   127119903.787                          41.000                                                                  
> 2018  6  8  1 41 56.0000000  0  9                     
G 4  23081863.619   121295998.216                          43.000                                                                  
G 8  22628313.025   118912604.667                          45.000                                                                  
G 9  22173729.619   116523752.909                          47.000                                                                  
G16  20494913.183   107701512.527                          49.000                                                                  
G21  24444338.594   128455886.033                          40.000                                                                  
G23  21337736.743   112130572.609                          48.000                                                                  
G26  22028407.467   115760084.757                          45.000                                                                  
G27  20357352.816   106978646.046                          51.000                                                                  
G31  24190679.272   127122856.643                          42.000                                                                  
> 2018  6  8  1 41 57.0000000  0  9                     
G 4  23082418.076   121298911.947                          43.000                                                                  
G 8  22627670.472   118909228.035                          45.000                                                                  
G 9  22173478.148   116522431.395                          47.000                                                                  
G16  20495154.986   107702783.237                          49.000                                                                  
G21  24444343.205   128455910.565                          40.000                                                                  
G23  21337871.583   112131281.170                          48.000                                                                  
G26  22028841.845   115762367.400                          46.000                                                                  
G27  20357053.885   106977075.368                          51.000                                                                  
G31  24191241.253   127125809.866                          41.000                                                                  
> 2018  6  8  1 41 58.0000000  0  9                     
G 4  23082972.695   121301825.948                          43.000                                                                  
G 8  22627028.010   118905851.908                          45.000                                                                  
G 9  22173226.767   116521110.682                          47.000                                                                  
G16  20495396.897   107704054.452                          49.000                                                                  
G21  24444348.136   128455935.792                          40.000                                                                  
G23  21338006.583   112131990.553                          48.000                                                                  
G26  22029276.205   115764650.354                          45.000                                                                  
G27  20356755.079   106975505.506                          51.000                                                                  
G31  24191803.269   127128763.435                          41.000                                                                  
> 2018  6  8  1 41 59.0000000  0  9                     
G 4  23083527.135   121304739.732                          43.000                                                                  
G 8  22626385.511   118902475.793                          45.000                                                                  
G 9  22172975.582   116519790.333                          47.000                                                                  
G16  20495638.772   107705325.720                          48.000                                                                  
G21  24444353.086   128455961.234                          40.000                                                                  
G23  21338141.709   112132700.319                          48.000                                                                  
G26  22029710.565   115766933.208                          45.000                                                                  
G27  20356456.381   106973936.013                          51.000                                                                  
G31  24192365.304   127131716.893                          41.000                                                                  
> 2018  6  8  1 42  0.0000000  0  9                     
G 4  23084081.611   121307653.584                          43.000                                                                  
G 8  22625743.066   118899099.998                          45.000                                                                  
G 9  22172724.469   116518470.576                          47.000                                                                  
G16  20495880.755   107706597.296                          49.000                                                                  
G21  24444358.107   128455987.154                          40.000                                                                  
G23  21338276.906   112133410.723                          48.000                                                                  
G26  22030144.961   115769216.194                          45.000                                                                  
G27  20356157.825   106972367.143                          51.000                                                                  
G31  24192927.392   127134670.542                          41.000                                                                  
> 2018  6  8  1 42  1.0000000  0  9                     
G 4  23084636.105   121310567.565                          43.000                                                                  
G 8  22625100.782   118895724.596                          45.000                                                                  
G 9  22172473.498   116517151.521                          47.000                                                                  
G16  20496122.755   107707869.264                          49.000                                                                  
G21  24444363.254   128456013.646                          40.000                                                                  
G23  21338412.264   112134121.851                          48.000                                                                  
G26  22030579.429   115771499.418                          45.000                                                                  
G27  20355859.377   106970798.994                          51.000                                                                  
G31  24193489.551   127137624.419                          41.000                                                                  
> 2018  6  8  1 42  2.0000000  0  9                     
G 4  23085190.616   121313481.560                          43.000                                                                  
G 8  22624458.498   118892349.437                          45.000                                                                  
G 9  22172222.599   116515833.032                          47.000                                                                  
G16  20496364.880   107709141.495                          48.000                                                                  
G21  24444368.311   128456040.578                          40.000                                                                  
G23  21338547.711   112134833.566                          48.000                                                                  
G26  22031013.932   115773782.724                          45.000                                                                  
G27  20355561.053   106969231.409                          51.000                                                                  
G31  24194051.550   127140578.378                          41.000                                                                  
> 2018  6  8  1 42  3.0000000  0  9                     
G 4  23085745.163   121316395.643                          43.000                                                                  
G 8  22623816.339   118888974.613                          45.000                                                                  
G 9  22171971.843   116514515.169                          47.000                                                                  
G16  20496607.023   107710414.050                          48.000                                                                  
G21  24444373.546   128456068.013                          40.000                                                                  
G23  21338683.247   112135545.930                          48.000                                                                  
G26  22031448.453   115776066.209                          46.000                                                                  
G27  20355262.837   106967664.489                          51.000                                                                  
G31  24194613.763   127143532.555                          41.000                                                                  
> 2018  6  8  1 42  4.0000000  0  9                     
G 4  23086299.746   121319309.700                          43.000                                                                  
G 8  22623174.197   118885600.001                          45.000                                                                  
G 9  22171721.177   116513197.839                          47.000                                                                  
G16  20496849.238   107711686.847                          48.000                                                                  
G21  24444378.853   128456095.840                          40.000                                                                  
G23  21338818.945   112136258.869                          48.000                                                                  
G26  22031883.028   115778349.756                          45.000                                                                  
G27  20354964.764   106966098.119                          51.000                                                                  
G31  24195175.958   127146486.796                          41.000                                                                  
> 2018  6  8  1 42  5.0000000  0  9                     
G 4  23086854.240   121322223.672                          43.000                                                                  
G 8  22622532.074   118882225.526                          45.000                                                                  
G 9  22171470.671   116511880.970                          47.000                                                                  
G16  20497091.524   107712959.796                          48.000                                                                  
G21  24444384.393   128456124.017                          40.000                                                                  
G23  21338954.678   112136972.281                          48.000                                                                  
G26  22032317.602   115780633.294                          45.000                                                                  
G27  20354666.798   106964532.215                          51.000                                                                  
G31  24195738.260   127149441.055                          41.000                                                                  
> 2018  6  8  1 42  6.0000000  0  9                     
G 4  23087408.805   121325137.641                          43.000                                                                  
G 8  22621890.076   118878851.306                          45.000                                                                  
G 9  22171220.237   116510564.653                          47.000                                                                  
G16  20497333.828   107714233.006                          48.000                                                                  
G21  24444389.753   128456152.622                          40.000                                                                  
G23  21339090.482   112137686.285                          48.000                                                                  
G26  22032752.213   115782916.931                          45.000                                                                  
G27  20354368.957   106962966.904                          51.000                                                                  
G31  24196300.473   127152395.417                          41.000                                                                  
> 2018  6  8  1 42  7.0000000  0  9                     
G 4  23087963.245   121328051.830                          43.000                                                                  
G 8  22621248.167   118875477.544                          45.000                                                                  
G 9  22170969.909   116509249.116                          47.000                                                                  
G16  20497576.185   107715506.692                          48.000                                                                  
G21  24444395.239   128456181.872                          40.000                                                                  
G23  21339226.448   112138401.093                          48.000                                                                  
G26  22033186.823   115785200.854                          45.000                                                                  
G27  20354071.224   106961402.374                          51.000                                                                  
G31  24196862.687   127155350.098                          41.000                                                                  
> 2018  6  8  1 42  8.0000000  0  9                     
G 4  23088517.846   121330966.277                          43.000                                                                  
G 8  22620606.347   118872104.267                          45.000                                                                  
G 9  22170719.725   116507934.366                          47.000                                                                  
G16  20497818.615   107716780.864                          49.000                                                                  
G21  24444400.850   128456211.795                          40.000                                                                  
G23  21339362.610   112139116.731                          48.000                                                                  
G26  22033621.523   115787485.143                          45.000                                                                  
G27  20353773.633   106959838.656                          51.000                                                                  
G31  24197425.078   127158305.123                          41.000                                                                  
> 2018  6  8  1 42  9.0000000  0  9                     
G 4  23089072.322   121333880.642                          43.000                                                                  
G 8  22619964.492   118868731.165                          45.000                                                                  
G 9  22170469.630   116506620.106                          47.000                                                                  
G16  20498061.079   107718055.228                          49.000                                                                  
G21  24444406.568   128456242.058                          40.000                                                                  
G23  21339498.843   112139832.869                          48.000                                                                  
G26  22034056.205   115789769.417                          45.000                                                                  
G27  20353476.149   106958275.440                          51.000                                                                  
G31  24197987.506   127161260.189                          42.000                                                                  
> 2018  6  8  1 42 10.0000000  0  9                     
G 4  23089626.941   121336795.063                          43.000                                                                  
G 8  22619322.708   118865358.363                          45.000                                                                  
G 9  22170219.643   116505306.438                          47.000                                                                  
G16  20498303.616   107719329.885                          49.000                                                                  
G21  24444412.376   128456272.817                          40.000                                                                  
G23  21339635.220   112140549.631                          48.000                                                                  
G26  22034490.851   115792053.838                          45.000                                                                  
G27  20353178.791   106956712.843                          51.000                                                                  
G31  24198550.076   127164215.381                          42.000                                                                  
> 2018  6  8  1 42 11.0000000  0  9                     
G 4  23090181.488   121339709.416                          43.000                                                                  
G 8  22618680.942   118861985.731                          45.000                                                                  
G 9  22169969.762   116503993.272                          47.000                                                                  
G16  20498546.205   107720604.741                          49.000                                                                  
G21  24444418.326   128456303.922                          40.000                                                                  
G23  21339771.703   112141266.916                          48.000                                                                  
G26  22034925.515   115794338.286                          45.000                                                                  
G27  20352881.558   106955150.766                          51.000                                                                  
G31  24199112.504   127167170.626                          42.000                                                                  
> 2018  6  8  1 42 12.0000000  0  9                     
G 4  23090735.946   121342623.723                          43.000                                                                  
G 8  22618039.212   118858613.307                          45.000                                                                  
G 9  22169720.007   116502680.614                          47.000                                                                  
G16  20498788.813   107721879.803                          48.000                                                                  
G21  24444424.276   128456335.414                          40.000                                                                  
G23  21339908.348   112141984.729                          48.000                                                                  
G26  22035360.286   115796622.777                          46.000                                                                  
G27  20352584.431   106953589.202                          51.000                                                                  
G31  24199674.735   127170125.929                          41.000                                                                  
> 2018  6  8  1 42 13.0000000  0  9                     
G 4  23091290.565   121345538.411                          43.000                                                                  
G 8  22617397.518   118855241.503                          45.000                                                                  
G 9  22169470.448   116501368.881                          47.000                                                                  
G16  20499031.528   107723155.499                          48.000                                                                  
G21  24444430.352   128456367.723                          40.000                                                                  
G23  21340045.117   112142703.519                          48.000                                                                  
G26  22035795.146   115798907.738                          45.000                                                                  
G27  20352287.430   106952028.610                          51.000                                                                  
G31  24200237.073   127173081.714                          41.000                                                                  
> 2018  6  8  1 42 14.0000000  0  9                     
G 4  23091845.112   121348453.072                          43.000                                                                  
G 8  22616755.805   118851869.910                          45.000                                                                  
G 9  22169220.943   116500057.669                          47.000                                                                  
G16  20499274.279   107724431.406                          48.000                                                                  
G21  24444436.463   128456400.418                          40.000                                                                  
G23  21340181.976   112143422.855                          48.000                                                                  
G26  22036229.971   115801192.752                          45.000                                                                  
G27  20351990.554   106950468.531                          51.000                                                                  
G31  24200799.429   127176037.564                          41.000                                                                  
> 2018  6  8  1 42 15.0000000  0  9                     
G 4  23092399.731   121351367.995                          43.000                                                                  
G 8  22616114.289   118848498.824                          45.000                                                                  
G 9  22168971.581   116498747.259                          47.000                                                                  
G16  20499517.190   107725707.809                          48.000                                                                  
G21  24444442.699   128456433.783                          40.000                                                                  
G23  21340319.031   112144143.022                          48.000                                                                  
G26  22036664.868   115803478.089                          45.000                                                                  
G27  20351693.804   106948909.288                          51.000                                                                  
G31  24201361.892   127178993.759                          41.000                                                                  
> 2018  6  8  1 42 16.0000000  0  9                     
G 4  23092954.403   121354282.911                          43.000                                                                  
G 8  22615472.809   118845127.982                          45.000                                                                  
G 9  22168722.362   116497437.418                          47.000                                                                  
G16  20499760.102   107726984.487                          48.000                                                                  
G21  24444449.132   128456467.594                          40.000                                                                  
G23  21340456.194   112144863.781                          48.000                                                                  
G26  22037099.817   115805763.540                          45.000                                                                  
G27  20351397.178   106947350.626                          51.000                                                                  
G31  24201924.337   127181950.078                          41.000                                                                  
> 2018  6  8  1 42 17.0000000  0  9                     
G 4  23093509.022   121357197.714                          43.000                                                                  
G 8  22614831.329   118841757.261                          45.000                                                                  
G 9  22168473.124   116496128.000                          47.000                                                                  
G16  20500003.049   107728261.286                          48.000                                                                  
G21  24444455.744   128456501.689                          40.000                                                                  
G23  21340593.482   112145585.001                          48.000                                                                  
G26  22037534.749   115808048.941                          45.000                                                                  
G27  20351100.659   106945792.414                          51.000                                                                  
G31  24202486.908   127184906.373                          41.000                                                                  
> 2018  6  8  1 42 18.0000000  0  9                     
G 4  23094063.694   121360112.580                          43.000                                                                  
G 8  22614189.939   118838386.853                          45.000                                                                  
G 9  22168224.012   116494819.210                          47.000                                                                  
G16  20500246.050   107729538.402                          48.000                                                                  
G21  24444462.373   128456536.304                          39.000                                                                  
G23  21340730.841   112146306.870                          48.000                                                                  
G26  22037969.717   115810334.504                          45.000                                                                  
G27  20350804.266   106944234.832                          51.000                                                                  
G31  24203049.639   127187862.833                          41.000                                                                  
> 2018  6  8  1 42 19.0000000  0  9                     
G 4  23094618.402   121363027.791                          43.000                                                                  
G 8  22613548.673   118835017.035                          45.000                                                                  
G 9  22167975.168   116493511.326                          47.000                                                                  
G16  20500489.247   107730816.117                          48.000                                                                  
G21  24444469.199   128456571.681                          40.000                                                                  
G23  21340868.307   112147029.659                          48.000                                                                  
G26  22038404.739   115812620.510                          45.000                                                                  
G27  20350507.997   106942678.175                          51.000                                                                  
G31  24203612.424   127190819.733                          41.000                                                                  
> 2018  6  8  1 42 20.0000000  0  9                     
G 4  23095173.182   121365943.156                          43.000                                                                  
G 8  22612907.443   118831647.602                          45.000                                                                  
G 9  22167726.396   116492204.132                          47.000                                                                  
G16  20500732.445   107732094.228                          48.000                                                                  
G21  24444476.097   128456607.646                          40.000                                                                  
G23  21341006.042   112147753.162                          48.000                                                                  
G26  22038839.796   115814906.721                          45.000                                                                  
G27  20350211.836   106941122.233                          51.000                                                                  
G31  24204175.120   127193776.888                          41.000                                                                  
> 2018  6  8  1 42 21.0000000  0  9                     
G 4  23095728.015   121368858.375                          43.000                                                                  
G 8  22612266.249   118828278.265                          45.000                                                                  
G 9  22167477.731   116490897.340                          47.000                                                                  
G16  20500975.713   107733372.444                          48.000                                                                  
G21  24444483.048   128456643.854                          40.000                                                                  
G23  21341143.865   112148477.108                          48.000                                                                  
G26  22039274.781   115817192.897                          45.000                                                                  
G27  20349915.818   106939566.729                          51.000                                                                  
G31  24204737.815   127196734.008                          41.000                                                                  
> 2018  6  8  1 42 22.0000000  0  9                     
G 4  23096282.919   121371773.700                          43.000                                                                  
G 8  22611625.144   118824909.272                          45.000                                                                  
G 9  22167229.226   116489591.208                          47.000                                                                  
G16  20501219.000   107734651.024                          48.000                                                                  
G21  24444490.106   128456680.608                          40.000                                                                  
G23  21341281.814   112149201.735                          48.000                                                                  
G26  22039709.785   115819479.249                          45.000                                                                  
G27  20349619.907   106938011.879                          51.000                                                                  
G31  24205300.564   127199691.307                          41.000                                                                  
> 2018  6  8  1 42 23.0000000  0  9                     
G 4  23096837.824   121374689.160                          43.000                                                                  
G 8  22610984.129   118821540.654                          45.000                                                                  
G 9  22166980.775   116488285.751                          47.000                                                                  
G16  20501462.412   107735929.971                          48.000                                                                  
G21  24444497.164   128456717.928                          40.000                                                                  
G23  21341419.870   112149927.075                          48.000                                                                  
G26  22040144.860   115821765.821                          45.000                                                                  
G27  20349324.103   106936457.737                          51.000                                                                  
G31  24205863.278   127202648.853                          41.000                                                                  
> 2018  6  8  1 42 24.0000000  0  9                     
G 4  23097392.747   121377604.464                          43.000                                                                  
G 8  22610343.238   118818172.124                          45.000                                                                  
G 9  22166732.467   116486980.693                          47.000                                                                  
G16  20501705.860   107737209.024                          48.000                                                                  
G21  24444504.294   128456755.507                          40.000                                                                  
G23  21341557.980   112150652.843                          48.000                                                                  
G26  22040580.006   115824052.317                          45.000                                                                  
G27  20349028.442   106934904.008                          51.000                                                                  
G31  24206426.027   127205606.351                          41.000                                                                  
> 2018  6  8  1 42 25.0000000  0  9                     
G 4  23097947.455   121380519.747                          43.000                                                                  
G 8  22609702.276   118814803.821                          45.000                                                                  
G 9  22166484.213   116485676.199                          47.000                                                                  
G16  20501949.343   107738488.326                          48.000                                                                  
G21  24444511.531   128456793.511                          40.000                                                                  
G23  21341696.233   112151379.181                          48.000                                                                  
G26  22041015.188   115826338.912                          45.000                                                                  
G27  20348732.889   106933350.863                          51.000                                                                  
G31  24206988.722   127208563.932                          41.000                                                                  
> 2018  6  8  1 42 26.0000000  0  9                     
G 4  23098502.484   121383435.174                          43.000                                                                  
G 8  22609061.350   118811435.904                          45.000                                                                  
G 9  22166236.191   116484372.385                          47.000                                                                  
G16  20502192.880   107739768.016                          48.000                                                                  
G21  24444518.857   128456832.090                          40.000                                                                  
G23  21341834.557   112152106.235                          48.000                                                                  
G26  22041450.281   115828625.719                          45.000                                                                  
G27  20348437.460   106931798.411                          51.000                                                                  
G31  24207551.543   127211521.753                          41.000                                                                  
> 2018  6  8  1 42 27.0000000  0  9                     
G 4  23099057.353   121386350.672                          43.000                                                                  
G 8  22608420.406   118808068.317                          45.000                                                                  
G 9  22165988.187   116483069.209                          47.000                                                                  
G16  20502436.417   107741048.037                          48.000                                                                  
G21  24444526.326   128456871.157                          40.000                                                                  
G23  21341972.935   112152833.951                          48.000                                                                  
G26  22041885.428   115830912.679                          45.000                                                                  
G27  20348142.157   106930246.619                          51.000                                                                  
G31  24208114.614   127214479.748                          41.000                                                                  
> 2018  6  8  1 42 28.0000000  0  9                     
G 4  23099612.240   121389266.493                          43.000                                                                  
G 8  22607779.695   118804701.278                          45.000                                                                  
G 9  22165740.361   116481766.900                          47.000                                                                  
G16  20502680.043   107742328.621                          48.000                                                                  
G21  24444533.992   128456910.974                          40.000                                                                  
G23  21342111.437   112153562.546                          48.000                                                                  
G26  22042320.753   115833200.067                          45.000                                                                  
G27  20347846.978   106928695.713                          51.000                                                                  
G31  24208677.595   127217438.165                          41.000                                                                  
> 2018  6  8  1 42 29.0000000  0  9                     
G 4  23100167.037   121392182.214                          43.000                                                                  
G 8  22607138.983   118801334.394                          45.000                                                                  
G 9  22165492.679   116480465.035                          47.000                                                                  
G16  20502923.723   107743609.347                          48.000                                                                  
G21  24444541.694   128456951.120                          40.000                                                                  
G23  21342250.119   112154291.627                          48.000                                                                  
G26  22042756.096   115835487.405                          45.000                                                                  
G27  20347551.907   106927145.271                          51.000                                                                  
G31  24209240.416   127220396.582                          41.000                                                                  
> 2018  6  8  1 42 30.0000000  0  9                     
G 4  23100721.906   121395098.105                          43.000                                                                  
G 8  22606498.343   118797967.933                          45.000                                                                  
G 9  22165245.085   116479163.895                          47.000                                                                  
G16  20503167.528   107744890.506                          48.000                                                                  
G21  24444549.485   128456991.839                          40.000                                                                  
G23  21342388.979   112155021.471                          48.000                                                                  
G26  22043191.421   115837775.018                          45.000                                                                  
G27  20347256.979   106925595.571                          51.000                                                                  
G31  24209803.433   127223355.289                          41.000                                                                  
> 2018  6  8  1 42 31.0000000  0  9                     
G 4  23101276.686   121398013.922                          43.000                                                                  
G 8  22605857.810   118794601.625                          45.000                                                                  
G 9  22164997.617   116477863.242                          47.000                                                                  
G16  20503411.404   107746171.836                          48.000                                                                  
G21  24444557.150   128457032.918                          40.000                                                                  
G23  21342527.946   112155751.832                          48.000                                                                  
G26  22043626.782   115840062.635                          45.000                                                                  
G27  20346962.158   106924046.370                          51.000                                                                  
G31  24210366.432   127226313.988                          41.000                                                                  
> 2018  6  8  1 42 32.0000000  0  9                     
G 4  23101831.340   121400929.634                          43.000                                                                  
G 8  22605217.241   118791235.490                          45.000                                                                  
G 9  22164750.239   116476563.058                          47.000                                                                  
G16  20503655.281   107747453.336                          48.000                                                                  
G21  24444564.941   128457074.355                          40.000                                                                  
G23  21342667.057   112156482.700                          48.000                                                                  
G26  22044062.178   115842350.281                          45.000                                                                  
G27  20346667.444   106922497.668                          51.000                                                                  
G31  24210929.539   127229272.713                          41.000                                                                  
> 2018  6  8  1 42 33.0000000  0  9                     
G 4  23102386.102   121403845.349                          43.000                                                                  
G 8  22604576.744   118787869.593                          45.000                                                                  
G 9  22164502.896   116475263.408                          47.000                                                                  
G16  20503899.175   107748735.062                          48.000                                                                  
G21  24444573.090   128457116.209                          40.000                                                                  
G23  21342806.274   112157214.117                          48.000                                                                  
G26  22044497.575   115844637.980                          45.000                                                                  
G27  20346372.873   106920949.506                          51.000                                                                  
G31  24211492.520   127232231.520                          41.000                                                                  
> 2018  6  8  1 42 34.0000000  0  9                     
G 4  23102940.917   121406761.161                          43.000                                                                  
G 8  22603936.300   118784504.021                          45.000                                                                  
G 9  22164255.696   116473964.404                          47.000                                                                  
G16  20504143.141   107750017.140                          48.000                                                                  
G21  24444581.238   128457158.571                          40.000                                                                  
G23  21342945.617   112157946.221                          48.000                                                                  
G26  22044933.061   115846925.849                          45.000                                                                  
G27  20346078.410   106919402.015                          51.000                                                                  
G31  24212055.466   127235190.548                          41.000                                                                  
> 2018  6  8  1 42 35.0000000  0  9                     
G 4  23103495.733   121409677.310                          43.000                                                                  
G 8  22603295.928   118781139.016                          45.000                                                                  
G 9  22164008.674   116472666.287                          47.000                                                                  
G16  20504387.160   107751299.799                          48.000                                                                  
G21  24444589.547   128457201.693                          40.000                                                                  
G23  21343085.156   112158679.223                          48.000                                                                  
G26  22045368.618   115849214.150                          45.000                                                                  
G27  20345784.071   106917855.429                          51.000                                                                  
G31  24212618.519   127238149.995                          41.000                                                                  
> 2018  6  8  1 42 36.0000000  0  9                     
G 4  23104050.655   121412593.618                          43.000                                                                  
G 8  22602655.699   118777774.433                          45.000                                                                  
G 9  22163761.831   116471368.905                          47.000                                                                  
G16  20504631.376   107752582.896                          48.000                                                                  
G21  24444597.802   128457245.434                          40.000                                                                  
G23  21343224.749   112159412.985                          48.000                                                                  
G26  22045804.158   115851502.706                          45.000                                                                  
G27  20345489.858   106916309.600                          51.000                                                                  
G31  24213181.661   127241109.709                          41.000                                                                  
> 2018  6  8  1 42 37.0000000  0  9                     
G 4  23104605.524   121415509.987                          43.000                                                                  
G 8  22602015.541   118774410.164                          45.000                                                                  
G 9  22163515.060   116470072.132                          47.000                                                                  
G16  20504875.646   107753866.292                          48.000                                                                  
G21  24444606.058   128457289.618                          40.000                                                                  
G23  21343364.503   112160147.375                          48.000                                                                  
G26  22046239.805   115853791.411                          45.000                                                                  
G27  20345195.751   106914764.384                          51.000                                                                  
G31  24213744.857   127244069.619                          41.000                                                                  
> 2018  6  8  1 42 38.0000000  0  9                     
G 4  23105160.447   121418426.409                          43.000                                                                  
G 8  22601375.330   118771046.171                          45.000                                                                  
G 9  22163268.468   116468775.950                          47.000                                                                  
G16  20505119.897   107755149.981                          48.000                                                                  
G21  24444614.546   128457334.303                          40.000                                                                  
G23  21343504.381   112160882.398                          48.000                                                                  
G26  22046675.362   115856080.243                          45.000                                                                  
G27  20344901.788   106913219.796                          51.000                                                                  
G31  24214308.142   127247029.633                          41.000                                                                  
> 2018  6  8  1 42 39.0000000  0  9                     
G 4  23105715.423   121421342.808                          43.000                                                                  
G 8  22600735.190   118767682.413                          45.000                                                                  
G 9  22163021.893   116467480.315                          47.000                                                                  
G16  20505364.185   107756433.905                          48.000                                                                  
G21  24444623.248   128457379.385                          40.000                                                                  
G23  21343644.331   112161617.962                          48.000                                                                  
G26  22047110.938   115858369.133                          45.000                                                                  
G27  20344607.932   106911675.759                          51.000                                                                  
G31  24214871.553   127249989.740                          41.000                                                                  
> 2018  6  8  1 42 40.0000000  0  9                     
G 4  23106270.309   121424259.283                          43.000                                                                  
G 8  22600095.229   118764319.007                          45.000                                                                  
G 9  22162775.461   116466185.293                          47.000                                                                  
G16  20505608.561   107757718.157                          48.000                                                                  
G21  24444631.897   128457424.984                          40.000                                                                  
G23  21343784.335   112162354.203                          48.000                                                                  
G26  22047546.441   115860658.193                          45.000                                                                  
G27  20344314.201   106910132.372                          51.000                                                                  
G31  24215435.124   127252950.029                          41.000                                                                  
> 2018  6  8  1 42 41.0000000  0  9                     
G 4  23106825.286   121427175.819                          43.000                                                                  
G 8  22599455.357   118760955.903                          45.000                                                                  
G 9  22162529.101   116464890.911                          47.000                                                                  
G16  20505853.099   107759002.724                          48.000                                                                  
G21  24444640.652   128457471.072                          40.000                                                                  
G23  21343924.536   112163091.084                          48.000                                                                  
G26  22047981.945   115862947.395                          45.000                                                                  
G27  20344020.577   106908589.629                          51.000                                                                  
G31  24215998.623   127255910.474                          41.000                                                                  
> 2018  6  8  1 42 42.0000000  0  9                     
G 4  23107380.333   121430092.136                          43.000                                                                  
G 8  22598815.431   118757592.811                          45.000                                                                  
G 9  22162282.902   116463596.849                          47.000                                                                  
G16  20506097.529   107760287.308                          48.000                                                                  
G21  24444649.462   128457517.351                          40.000                                                                  
G23  21344064.790   112163828.314                          47.000                                                                  
G26  22048417.503   115865236.470                          45.000                                                                  
G27  20343727.096   106907047.227                          50.000                                                                  
G31  24216562.016   127258870.801                          41.000                                                                  
> 2018  6  8  1 42 43.0000000  0  9                     
G 4  23107935.381   121433008.787                          43.000                                                                  
G 8  22598175.595   118754230.314                          45.000                                                                  
G 9  22162036.738   116462303.687                          47.000                                                                  
G16  20506342.103   107761572.496                          48.000                                                                  
G21  24444658.575   128457564.394                          40.000                                                                  
G23  21344205.294   112164566.478                          47.000                                                                  
G26  22048853.060   115867525.968                          45.000                                                                  
G27  20343433.723   106905505.744                          51.000                                                                  
G31  24217125.605   127261831.592                          41.000                                                                  
> 2018  6  8  1 42 44.0000000  0  9                     
G 4  23108490.428   121435925.332                          43.000                                                                  
G 8  22597535.902   118750867.947                          45.000                                                                  
G 9  22161790.735   116461010.971                          47.000                                                                  
G16  20506586.658   107762857.820                          48.000                                                                  
G21  24444667.581   128457611.764                          40.000                                                                  
G23  21344345.816   112165305.114                          47.000                                                                  
G26  22049288.689   115869815.454                          45.000                                                                  
G27  20343140.474   106903964.736                          51.000                                                                  
G31  24217689.015   127264792.345                          41.000                                                                  
> 2018  6  8  1 42 45.0000000  0  9                     
G 4  23109045.440   121438842.024                          43.000                                                                  
G 8  22596896.137   118747505.976                          45.000                                                                  
G 9  22161544.875   116459718.960                          47.000                                                                  
G16  20506831.303   107764143.540                          48.000                                                                  
G21  24444676.605   128457659.725                          40.000                                                                  
G23  21344486.481   112166044.466                          47.000                                                                  
G26  22049724.461   115872105.169                          45.000                                                                  
G27  20342847.351   106902424.435                          51.000                                                                  
G31  24218252.568   127267753.356                          41.000                                                                  
> 2018  6  8  1 42 46.0000000  0  9                     
G 4  23109600.488   121441758.669                          43.000                                                                  
G 8  22596256.355   118744144.198                          45.000                                                                  
G 9  22161299.123   116458427.442                          47.000                                                                  
G16  20507076.019   107765429.459                          48.000                                                                  
G21  24444685.843   128457708.061                          40.000                                                                  
G23  21344627.271   112166784.351                          47.000                                                                  
G26  22050160.125   115874394.907                          45.000                                                                  
G27  20342554.334   106900884.651                          51.000                                                                  
G31  24218816.050   127270714.431                          41.000                                                                  
> 2018  6  8  1 42 47.0000000  0  9                     
G 4  23110155.571   121444675.391                          43.000                                                                  
G 8  22595616.626   118740782.755                          45.000                                                                  
G 9  22161053.477   116457136.569                          47.000                                                                  
G16  20507320.771   107766715.716                          48.000                                                                  
G21  24444695.099   128457756.899                          40.000                                                                  
G23  21344768.204   112167524.907                          47.000                                                                  
G26  22050595.862   115876684.830                          45.000                                                                  
G27  20342261.461   106899345.536                          50.000                                                                  
G31  24219379.621   127273675.663                          41.000                                                                  
> 2018  6  8  1 42 48.0000000  0  9                     
G 4  23110710.601   121447592.056                          43.000                                                                  
G 8  22594976.826   118737421.494                          45.000                                                                  
G 9  22160807.939   116455846.198                          47.000                                                                  
G16  20507565.577   107768002.158                          48.000                                                                  
G21  24444704.355   128457806.101                          40.000                                                                  
G23  21344909.297   112168265.978                          48.000                                                                  
G26  22051031.633   115878974.783                          45.000                                                                  
G27  20341968.695   106897806.931                          50.000                                                                  
G31  24219943.174   127276636.952                          41.000                                                                  
> 2018  6  8  1 42 49.0000000  0  9                     
G 4  23111265.648   121450508.957                          43.000                                                                  
G 8  22594337.240   118734060.721                          45.000                                                                  
G 9  22160562.526   116454556.617                          47.000                                                                  
G16  20507810.436   107769289.095                          48.000                                                                  
G21  24444713.844   128457855.975                          40.000                                                                  
G23  21345050.570   112169007.851                          48.000                                                                  
G26  22051467.423   115881265.046                          45.000                                                                  
G27  20341676.036   106896269.136                          50.000                                                                  
G31  24220506.781   127279598.586                          41.000                                                                  
> 2018  6  8  1 42 50.0000000  0  9                     
G 4  23111820.642   121453426.127                          43.000                                                                  
G 8  22593697.832   118730700.443                          45.000                                                                  
G 9  22160317.291   116453267.848                          47.000                                                                  
G16  20508055.438   107770576.540                          48.000                                                                  
G21  24444723.493   128457906.527                          40.000                                                                  
G23  21345192.003   112169750.562                          48.000                                                                  
G26  22051903.302   115883555.656                          45.000                                                                  
G27  20341383.520   106894732.172                          51.000                                                                  
G31  24221070.513   127282560.565                          41.000                                                                  
> 2018  6  8  1 42 51.0000000  0  9                     
G 4  23112375.636   121456343.092                          43.000                                                                  
G 8  22593058.425   118727340.203                          45.000                                                                  
G 9  22160072.093   116451979.438                          47.000                                                                  
G16  20508300.387   107771864.033                          48.000                                                                  
G21  24444733.107   128457957.293                          40.000                                                                  
G23  21345333.419   112170493.662                          48.000                                                                  
G26  22052339.181   115885846.155                          45.000                                                                  
G27  20341091.112   106893195.580                          51.000                                                                  
G31  24221634.084   127285522.462                          41.000                                                                  
> 2018  6  8  1 42 52.0000000  0  9                     
G 4  23112930.755   121459260.157                          43.000                                                                  
G 8  22592419.232   118723980.318                          45.000                                                                  
G 9  22159827.037   116450691.675                          47.000                                                                  
G16  20508545.460   107773151.880                          48.000                                                                  
G21  24444742.792   128458008.604                          40.000                                                                  
G23  21345474.941   112171237.442                          48.000                                                                  
G26  22052774.989   115888136.829                          45.000                                                                  
G27  20340798.846   106891659.664                          51.000                                                                  
G31  24222197.763   127288484.553                          41.000                                                                  
> 2018  6  8  1 42 53.0000000  0  9                     
G 4  23113485.892   121462177.274                          43.000                                                                  
G 8  22591780.057   118720620.768                          45.000                                                                  
G 9  22159582.053   116449404.544                          47.000                                                                  
G16  20508790.570   107774440.050                          48.000                                                                  
G21  24444752.780   128458060.406                          40.000                                                                  
G23  21345616.571   112171981.867                          48.000                                                                  
G26  22053210.904   115890427.677                          45.000                                                                  
G27  20340506.687   106890124.390                          51.000                                                                  
G31  24222761.477   127291446.811                          41.000                                                                  
> 2018  6  8  1 42 54.0000000  0  9                     
G 4  23114040.994   121465094.415                          43.000                                                                  
G 8  22591140.775   118717261.426                          45.000                                                                  
G 9  22159337.193   116448117.944                          47.000                                                                  
G16  20509035.804   107775728.440                          48.000                                                                  
G21  24444762.716   128458112.622                          40.000                                                                  
G23  21345758.362   112172726.844                          48.000                                                                  
G26  22053646.765   115892718.580                          45.000                                                                  
G27  20340214.636   106888589.670                          51.000                                                                  
G31  24223325.137   127294409.163                          41.000                                                                  
> 2018  6  8  1 42 55.0000000  0  9                     
G 4  23114596.184   121468011.703                          43.000                                                                  
G 8  22590501.565   118713902.542                          45.000                                                                  
G 9  22159092.459   116446832.101                          47.000                                                                  
G16  20509281.075   107777017.282                          48.000                                                                  
G21  24444772.901   128458165.442                          40.000                                                                  
G23  21345900.260   112173472.602                          48.000                                                                  
G26  22054082.698   115895009.771                          45.000                                                                  
G27  20339922.728   106887055.725                          51.000                                                                  
G31  24223888.869   127297371.791                          41.000                                                                  
> 2018  6  8  1 42 56.0000000  0  9                     
G 4  23115151.375   121470929.050                          43.000                                                                  
G 8  22589862.515   118710543.913                          45.000                                                                  
G 9  22158847.797   116445546.830                          47.000                                                                  
G16  20509526.452   107778306.400                          48.000                                                                  
G21  24444782.961   128458218.726                          40.000                                                                  
G23  21346042.319   112174218.967                          48.000                                                                  
G26  22054518.595   115897301.071                          45.000                                                                  
G27  20339630.927   106885522.382                          51.000                                                                  
G31  24224452.565   127300334.560                          41.000                                                                  
> 2018  6  8  1 42 57.0000000  0  9                     
G 4  23115706.530   121473846.449                          43.000                                                                  
G 8  22589223.358   118707185.604                          45.000                                                                  
G 9  22158603.330   116444262.202                          47.000                                                                  
G16  20509771.812   107779595.840                          48.000                                                                  
G21  24444793.200   128458272.520                          40.000                                                                  
G23  21346184.467   112174965.990                          48.000                                                                  
G26  22054954.599   115899592.531                          45.000                                                                  
G27  20339339.250   106883989.688                          51.000                                                                  
G31  24225016.226   127303297.493                          41.000                                                                  
> 2018  6  8  1 42 58.0000000  0  9                     
G 4  23116261.702   121476763.954                          43.000                                                                  
G 8  22588584.290   118703827.635                          45.000                                                                  
G 9  22158359.007   116442978.211                          47.000                                                                  
G16  20510017.189   107780885.627                          48.000                                                                  
G21  24444803.457   128458326.831                          40.000                                                                  
G23  21346326.793   112175713.678                          48.000                                                                  
G26  22055390.692   115901884.162                          45.000                                                                  
G27  20339047.700   106882457.653                          51.000                                                                  
G31  24225580.118   127306260.632                          41.000                                                                  
> 2018  6  8  1 42 59.0000000  0  9                     
G 4  23116816.821   121479681.541                          43.000                                                                  
G 8  22587945.115   118700470.019                          45.000                                                                  
G 9  22158114.773   116441694.874                          47.000                                                                  
G16  20510262.709   107782175.746                          48.000                                                                  
G21  24444813.946   128458381.643                          40.000                                                                  
G23  21346469.227   112176462.042                          48.000                                                                  
G26  22055826.804   115904175.978                          45.000                                                                  
G27  20338756.256   106880926.299                          51.000                                                                  
G31  24226144.083   127309223.949                          41.000                                                                  
> 2018  6  8  1 43  0.0000000  0  9                     
G 4  23117372.137   121482599.146                          43.000                                                                  
G 8  22587306.119   118697112.664                          45.000                                                                  
G 9  22157870.754   116440412.097                          47.000                                                                  
G16  20510508.283   107783466.134                          48.000                                                                  
G21  24444824.596   128458436.917                          40.000                                                                  
G23  21346611.751   112177210.993                          48.000                                                                  
G26  22056262.951   115906467.897                          45.000                                                                  
G27  20338464.955   106879395.509                          51.000                                                                  
G31  24226708.136   127312187.384                          41.000                                                                  
> 2018  6  8  1 43  1.0000000  0  9                     
G 4  23117927.399   121485516.906                          43.000                                                                  
G 8  22586667.158   118693755.711                          45.000                                                                  
G 9  22157626.824   116439130.043                          47.000                                                                  
G16  20510753.929   107784756.928                          48.000                                                                  
G21  24444835.317   128458492.759                          40.000                                                                  
G23  21346754.417   112177960.685                          48.000                                                                  
G26  22056699.116   115908760.048                          45.000                                                                  
G27  20338173.761   106877865.458                          51.000                                                                  
G31  24227272.029   127315151.074                          41.000                                                                  
> 2018  6  8  1 43  2.0000000  0  9                     
G 4  23118482.697   121488434.824                          43.000                                                                  
G 8  22586028.376   118690399.162                          45.000                                                                  
G 9  22157382.930   116437848.701                          47.000                                                                  
G16  20510999.664   107786048.153                          48.000                                                                  
G21  24444846.128   128458549.206                          40.000                                                                  
G23  21346897.155   112178711.121                          48.000                                                                  
G26  22057135.370   115911052.442                          45.000                                                                  
G27  20337882.693   106876336.141                          51.000                                                                  
G31  24227836.011   127318115.043                          41.000                                                                  
> 2018  6  8  1 43  3.0000000  0  9                     
G 4  23119037.994   121491352.570                          43.000                                                                  
G 8  22585389.720   118687042.693                          45.000                                                                  
G 9  22157139.143   116436567.750                          47.000                                                                  
G16  20511245.470   107787339.430                          48.000                                                                  
G21  24444857.010   128458605.891                          40.000                                                                  
G23  21347040.000   112179461.961                          48.000                                                                  
G26  22057571.607   115913344.759                          45.000                                                                  
G27  20337591.749   106874807.220                          51.000                                                                  
G31  24228400.065   127321078.930                          41.000                                                                  
> 2018  6  8  1 43  4.0000000  0  9                     
G 4  23119593.239   121494270.280                          43.000                                                                  
G 8  22584751.134   118683686.435                          45.000                                                                  
G 9  22156895.516   116435287.306                          47.000                                                                  
G16  20511491.223   107788630.951                          48.000                                                                  
G21  24444867.875   128458662.975                          40.000                                                                  
G23  21347182.934   112180213.329                          48.000                                                                  
G26  22058007.897   115915637.133                          45.000                                                                  
G27  20337300.913   106873278.851                          51.000                                                                  
G31  24228964.136   127324042.870                          41.000                                                                  
> 2018  6  8  1 43  5.0000000  0  9                     
G 4  23120148.429   121497188.067                          43.000                                                                  
G 8  22584112.620   118680330.506                          45.000                                                                  
G 9  22156652.069   116434007.502                          47.000                                                                  
G16  20511737.047   107789922.810                          48.000                                                                  
G21  24444878.918   128458720.569                          40.000                                                                  
G23  21347326.083   112180965.379                          48.000                                                                  
G26  22058444.097   115917929.647                          45.000                                                                  
G27  20337010.202   106871751.118                          51.000                                                                  
G31  24229528.261   127327007.003                          41.000                                                                  
> 2018  6  8  1 43  6.0000000  0  9                     
G 4  23120703.548   121500105.633                          43.000                                                                  
G 8  22583474.250   118676974.601                          45.000                                                                  
G 9  22156408.568   116432728.033                          47.000                                                                  
G16  20511982.907   107791214.683                          48.000                                                                  
G21  24444890.050   128458778.369                          40.000                                                                  
G23  21347469.232   112181717.774                          48.000                                                                  
G26  22058880.352   115920222.047                          45.000                                                                  
G27  20336719.634   106870223.744                          51.000                                                                  
G31  24230092.368   127329971.010                          41.000                                                                  
> 2018  6  8  1 43  7.0000000  0  9                     
G 4  23121258.917   121503023.681                          43.000                                                                  
G 8  22582835.932   118673619.437                          45.000                                                                  
G 9  22156165.281   116431449.611                          47.000                                                                  
G16  20512228.909   107792507.311                          48.000                                                                  
G21  24444901.272   128458837.087                          40.000                                                                  
G23  21347612.666   112182471.250                          48.000                                                                  
G26  22059316.731   115922515.008                          45.000                                                                  
G27  20336429.155   106868697.435                          51.000                                                                  
G31  24230656.458   127332935.604                          41.000                                                                  
> 2018  6  8  1 43  8.0000000  0  9                     
G 4  23121814.144   121505941.779                          43.000                                                                  
G 8  22582197.615   118670264.541                          45.000                                                                  
G 9  22155922.119   116430171.770                          47.000                                                                  
G16  20512474.948   107793800.205                          48.000                                                                  
G21  24444912.547   128458896.260                          40.000                                                                  
G23  21347756.154   112183225.332                          48.000                                                                  
G26  22059753.021   115924808.091                          45.000                                                                  
G27  20336138.819   106867171.733                          51.000                                                                  
G31  24231220.565   127335900.339                          41.000                                                                  
> 2018  6  8  1 43  9.0000000  0  9                     
G 4  23122369.424   121508859.929                          43.000                                                                  
G 8  22581559.298   118666909.974                          45.000                                                                  
G 9  22155679.065   116428894.557                          47.000                                                                  
G16  20512721.058   107795093.411                          48.000                                                                  
G21  24444923.805   128458955.927                          40.000                                                                  
G23  21347899.804   112183980.055                          48.000                                                                  
G26  22060189.401   115927101.333                          45.000                                                                  
G27  20335848.590   106865646.671                          51.000                                                                  
G31  24231784.690   127338865.235                          41.000                                                                  
> 2018  6  8  1 43 10.0000000  0  9                     
G 4  23122924.775   121511778.282                          43.000                                                                  
G 8  22580921.106   118663555.855                          45.000                                                                  
G 9  22155436.171   116427618.099                          47.000                                                                  
G16  20512967.311   107796387.065                          48.000                                                                  
G21  24444935.295   128459016.244                          40.000                                                                  
G23  21348043.524   112184735.558                          48.000                                                                  
G26  22060625.816   115929394.854                          45.000                                                                  
G27  20335558.505   106864122.380                          51.000                                                                  
G31  24232348.976   127341830.425                          41.000                                                                  
> 2018  6  8  1 43 11.0000000  0  9                     
G 4  23123480.037   121514696.518                          43.000                                                                  
G 8  22580282.842   118660201.883                          45.000                                                                  
G 9  22155193.367   116426342.077                          47.000                                                                  
G16  20513213.546   107797680.855                          48.000                                                                  
G21  24444946.802   128459076.893                          40.000                                                                  
G23  21348187.352   112185491.525                          48.000                                                                  
G26  22061062.267   115931688.346                          45.000                                                                  
G27  20335268.526   106862598.550                          51.000                                                                  
G31  24232913.262   127344795.603                          41.000                                                                  
> 2018  6  8  1 43 12.0000000  0  9                     
G 4  23124035.281   121517614.862                          43.000                                                                  
G 8  22579644.668   118656848.252                          45.000                                                                  
G 9  22154950.670   116425066.713                          47.000                                                                  
G16  20513459.799   107798975.005                          48.000                                                                  
G21  24444958.435   128459138.059                          40.000                                                                  
G23  21348331.305   112186248.172                          48.000                                                                  
G26  22061498.789   115933982.016                          45.000                                                                  
G27  20334978.655   106861075.407                          51.000                                                                  
G31  24233477.601   127347760.986                          41.000                                                                  
> 2018  6  8  1 43 13.0000000  0  9                     
G 4  23124590.632   121520533.286                          43.000                                                                  
G 8  22579006.565   118653494.978                          45.000                                                                  
G 9  22154708.134   116423792.001                          47.000                                                                  
G16  20513706.124   107800269.484                          48.000                                                                  
G21  24444970.157   128459199.741                          40.000                                                                  
G23  21348475.436   112187005.498                          48.000                                                                  
G26  22061935.347   115936275.883                          45.000                                                                  
G27  20334688.927   106859552.927                          51.000                                                                  
G31  24234042.048   127350726.563                          41.000                                                                  
> 2018  6  8  1 43 14.0000000  0  9                     
G 4  23125146.037   121523451.553                          43.000                                                                  
G 8  22578368.444   118650141.787                          45.000                                                                  
G 9  22154465.615   116422517.705                          47.000                                                                  
G16  20513952.466   107801564.066                          48.000                                                                  
G21  24444981.969   128459261.696                          40.000                                                                  
G23  21348619.604   112187763.234                          48.000                                                                  
G26  22062371.869   115938569.659                          45.000                                                                  
G27  20334399.305   106858030.864                          51.000                                                                  
G31  24234606.405   127353692.093                          41.000                                                                  
> 2018  6  8  1 43 15.0000000  0  9                     
G 4  23125701.442   121526370.041                          43.000                                                                  
G 8  22577730.342   118646789.048                          45.000                                                                  
G 9  22154223.168   116421244.145                          47.000                                                                  
G16  20514198.933   107802859.071                          48.000                                                                  
G21  24444993.851   128459324.279                          40.000                                                                  
G23  21348763.949   112188521.756                          48.000                                                                  
G26  22062808.410   115940863.744                          45.000                                                                  
G27  20334109.809   106856509.582                          51.000                                                                  
G31  24235170.816   127356657.914                          41.000                                                                  
> 2018  6  8  1 43 16.0000000  0  9                     
G 4  23126256.901   121529288.565                          42.000                                                                  
G 8  22577092.435   118643436.640                          45.000                                                                  
G 9  22153980.846   116419971.228                          47.000                                                                  
G16  20514445.383   107804154.421                          48.000                                                                  
G21  24445005.949   128459387.370                          40.000                                                                  
G23  21348908.456   112189280.931                          48.000                                                                  
G26  22063244.986   115943157.972                          45.000                                                                  
G27  20333820.438   106854988.942                          51.000                                                                  
G31  24235735.174   127359623.902                          42.000                                                                  
> 2018  6  8  1 43 17.0000000  0  9                     
G 4  23126812.324   121532207.041                          43.000                                                                  
G 8  22576454.493   118640084.408                          45.000                                                                  
G 9  22153738.560   116418698.793                          47.000                                                                  
G16  20514691.886   107805449.936                          48.000                                                                  
G21  24445017.921   128459450.804                          40.000                                                                  
G23  21349052.963   112190040.606                          48.000                                                                  
G26  22063681.579   115945452.203                          45.000                                                                  
G27  20333531.193   106853468.789                          51.000                                                                  
G31  24236299.620   127362589.902                          42.000                                                                  
> 2018  6  8  1 43 18.0000000  0  9                     
G 4  23127367.800   121535125.658                          42.000                                                                  
G 8  22575816.516   118636732.576                          45.000                                                                  
G 9  22153496.507   116417427.068                          47.000                                                                  
G16  20514938.497   107806745.859                          48.000                                                                  
G21  24445030.090   128459514.798                          40.000                                                                  
G23  21349197.756   112190801.007                          48.000                                                                  
G26  22064118.173   115947746.683                          45.000                                                                  
G27  20333242.072   106851949.381                          51.000                                                                  
G31  24236864.067   127365556.180                          42.000                                                                  
> 2018  6  8  1 43 19.0000000  0  9                     
G 4  23127923.205   121538044.287                          43.000                                                                  
G 8  22575178.717   118633381.019                          45.000                                                                  
G 9  22153254.578   116416155.917                          47.000                                                                  
G16  20515185.089   107808042.046                          48.000                                                                  
G21  24445042.294   128459579.262                          40.000                                                                  
G23  21349342.620   112191562.021                          48.000                                                                  
G26  22064554.856   115950041.287                          45.000                                                                  
G27  20332953.058   106850430.575                          51.000                                                                  
G31  24237428.532   127368522.579                          42.000                                                                  
> 2018  6  8  1 43 20.0000000  0  9                     
G 4  23128478.557   121540962.731                          43.000                                                                  
G 8  22574540.864   118630029.509                          45.000                                                                  
G 9  22153012.703   116414885.116                          47.000                                                                  
G16  20515431.717   107809338.295                          49.000                                                                  
G21  24445054.660   128459643.964                          40.000                                                                  
G23  21349487.556   112192323.402                          48.000                                                                  
G26  22064991.468   115952335.759                          45.000                                                                  
G27  20332664.170   106848912.124                          51.000                                                                  
G31  24237993.068   127371488.863                          42.000                                                                  
> 2018  6  8  1 43 21.0000000  0  9                     
G 4  23129033.997   121543881.157                          42.000                                                                  
G 8  22573903.047   118626678.225                          45.000                                                                  
G 9  22152771.060   116413614.864                          47.000                                                                  
G16  20515678.399   107810634.763                          49.000                                                                  
G21  24445066.918   128459709.053                          40.000                                                                  
G23  21349632.616   112193085.355                          48.000                                                                  
G26  22065428.098   115954630.301                          45.000                                                                  
G27  20332375.406   106847394.249                          51.000                                                                  
G31  24238557.586   127374455.238                          42.000                                                                  
> 2018  6  8  1 43 22.0000000  0  9                     
G 4  23129589.367   121546799.748                          42.000                                                                  
G 8  22573265.355   118623327.337                          45.000                                                                  
G 9  22152529.542   116412345.322                          47.000                                                                  
G16  20515925.224   107811931.637                          49.000                                                                  
G21  24445079.176   128459774.740                          40.000                                                                  
G23  21349777.731   112193848.027                          48.000                                                                  
G26  22065864.781   115956925.072                          45.000                                                                  
G27  20332086.750   106845877.095                          51.000                                                                  
G31  24239121.997   127377421.875                          42.000                                                                  
> 2018  6  8  1 43 23.0000000  0  9                     
G 4  23130144.736   121549718.549                          42.000                                                                  
G 8  22572627.806   118619976.928                          45.000                                                                  
G 9  22152288.114   116411076.557                          47.000                                                                  
G16  20516172.102   107813228.989                          49.000                                                                  
G21  24445091.666   128459841.062                          40.000                                                                  
G23  21349923.042   112194611.506                          48.000                                                                  
G26  22066301.482   115959220.171                          45.000                                                                  
G27  20331798.237   106844360.739                          51.000                                                                  
G31  24239686.443   127380388.837                          42.000                                                                  
> 2018  6  8  1 43 24.0000000  0  9                     
G 4  23130700.141   121552637.507                          42.000                                                                  
G 8  22571990.311   118616626.924                          45.000                                                                  
G 9  22152046.829   116409808.523                          47.000                                                                  
G16  20516419.034   107814526.752                          49.000                                                                  
G21  24445104.300   128459907.979                          40.000                                                                  
G23  21350068.478   112195375.724                          48.000                                                                  
G26  22066738.219   115961515.506                          45.000                                                                  
G27  20331509.831   106842845.135                          51.000                                                                  
G31  24240251.069   127383356.036                          42.000                                                                  
> 2018  6  8  1 43 25.0000000  0  9                     
G 4  23131255.671   121555556.837                          42.000                                                                  
G 8  22571352.887   118613277.550                          45.000                                                                  
G 9  22151805.722   116408541.405                          47.000                                                                  
G16  20516666.163   107815825.136                          49.000                                                                  
G21  24445117.023   128459975.715                          40.000                                                                  
G23  21350214.128   112196140.887                          48.000                                                                  
G26  22067175.009   115963811.295                          45.000                                                                  
G27  20331221.550   106841330.455                          51.000                                                                  
G31  24240815.766   127386323.723                          42.000                                                                  
> 2018  6  8  1 43 26.0000000  0  9                     
G 4  23131811.076   121558476.094                          42.000                                                                  
G 8  22570715.571   118609928.329                          45.000                                                                  
G 9  22151564.669   116407274.780                          47.000                                                                  
G16  20516913.256   107817123.683                          49.000                                                                  
G21  24445129.853   128460043.771                          40.000                                                                  
G23  21350359.903   112196906.564                          48.000                                                                  
G26  22067611.907   115966107.099                          45.000                                                                  
G27  20330933.394   106839816.273                          51.000                                                                  
G31  24241380.552   127389291.431                          42.000                                                                  
> 2018  6  8  1 43 27.0000000  0  9                     
G 4  23132366.517   121561395.433                          42.000                                                                  
G 8  22570078.236   118606579.466                          45.000                                                                  
G 9  22151323.723   116406008.782                          47.000                                                                  
G16  20517160.420   107818422.575                          49.000                                                                  
G21  24445142.843   128460112.381                          40.000                                                                  
G23  21350505.786   112197672.910                          48.000                                                                  
G26  22068048.787   115968403.081                          45.000                                                                  
G27  20330645.345   106838302.779                          51.000                                                                  
G31  24241945.284   127392259.347                          42.000                                                                  
> 2018  6  8  1 43 28.0000000  0  9                     
G 4  23132921.921   121564314.584                          42.000                                                                  
G 8  22569440.938   118603230.647                          45.000                                                                  
G 9  22151082.866   116404743.149                          47.000                                                                  
G16  20517407.620   107819721.523                          49.000                                                                  
G21  24445155.888   128460181.188                          40.000                                                                  
G23  21350651.633   112198439.640                          48.000                                                                  
G26  22068485.791   115970698.938                          45.000                                                                  
G27  20330357.440   106836789.639                          51.000                                                                  
G31  24242510.035   127395227.157                          42.000                                                                  
> 2018  6  8  1 43 29.0000000  0  9                     
G 4  23133477.434   121567233.964                          42.000                                                                  
G 8  22568803.728   118599882.309                          45.000                                                                  
G 9  22150842.135   116403478.322                          47.000                                                                  
G16  20517654.838   107821020.953                          49.000                                                                  
G21  24445169.093   128460250.676                          40.000                                                                  
G23  21350797.677   112199207.178                          48.000                                                                  
G26  22068922.760   115972995.124                          45.000                                                                  
G27  20330069.641   106835277.318                          51.000                                                                  
G31  24243074.857   127398195.304                          42.000                                                                  
> 2018  6  8  1 43 30.0000000  0  9                     
G 4  23134032.857   121570153.092                          42.000                                                                  
G 8  22568166.644   118596534.001                          45.000                                                                  
G 9  22150601.510   116402213.801                          47.000                                                                  
G16  20517902.181   107822320.377                          49.000                                                                  
G21  24445182.334   128460320.348                          40.000                                                                  
G23  21350943.792   112199975.035                          48.000                                                                  
G26  22069359.640   115975291.142                          45.000                                                                  
G27  20329781.968   106833765.338                          51.000                                                                  
G31  24243639.768   127401163.294                          42.000                                                                  
> 2018  6  8  1 43 31.0000000  0  9                     
G 4  23134588.351   121573072.219                          42.000                                                                  
G 8  22567529.577   118593185.954                          45.000                                                                  
G 9  22150360.958   116400949.837                          47.000                                                                  
G16  20518149.560   107823620.056                          49.000                                                                  
G21  24445195.682   128460390.438                          40.000                                                                  
G23  21351090.014   112200743.496                          48.000                                                                  
G26  22069796.574   115977587.265                          45.000                                                                  
G27  20329494.420   106832253.930                          51.000                                                                  
G31  24244204.590   127404131.391                          42.000                                                                  
> 2018  6  8  1 43 32.0000000  0  9                     
G 4  23135143.792   121575991.277                          42.000                                                                  
G 8  22566892.457   118589838.080                          45.000                                                                  
G 9  22150120.530   116399686.378                          47.000                                                                  
G16  20518396.992   107824919.916                          49.000                                                                  
G21  24445209.012   128460460.900                          40.000                                                                  
G23  21351236.308   112201512.454                          48.000                                                                  
G26  22070233.489   115979883.389                          45.000                                                                  
G27  20329206.978   106830743.029                          51.000                                                                  
G31  24244769.448   127407099.515                          42.000                                                                  
> 2018  6  8  1 43 33.0000000  0  9                     
G 4  23135699.232   121578910.566                          42.000                                                                  
G 8  22566255.445   118586490.675                          45.000                                                                  
G 9  22149880.227   116398423.697                          47.000                                                                  
G16  20518644.407   107826220.261                          49.000                                                                  
G21  24445222.503   128460532.010                          40.000                                                                  
G23  21351382.798   112202282.224                          48.000                                                                  
G26  22070670.458   115982179.833                          45.000                                                                  
G27  20328919.680   106829232.930                          51.000                                                                  
G31  24245334.377   127410067.983                          42.000                                                                  
> 2018  6  8  1 43 34.0000000  0  9                     
G 4  23136254.798   121581830.048                          42.000                                                                  
G 8  22565618.485   118583143.717                          45.000                                                                  
G 9  22149640.103   116397161.773                          47.000                                                                  
G16  20518891.982   107827521.038                          49.000                                                                  
G21  24445236.138   128460603.746                          40.000                                                                  
G23  21351529.413   112203052.775                          48.000                                                                  
G26  22071107.570   115984476.561                          45.000                                                                  
G27  20328632.489   106827723.602                          51.000                                                                  
G31  24245899.395   127413036.744                          42.000                                                                  
> 2018  6  8  1 43 35.0000000  0  9                     
G 4  23136810.400   121584749.833                          42.000                                                                  
G 8  22564981.616   118579797.295                          45.000                                                                  
G 9  22149400.140   116395900.690                          47.000                                                                  
G16  20519139.683   107828822.372                          49.000                                                                  
G21  24445249.986   128460676.218                          40.000                                                                  
G23  21351676.189   112203824.207                          48.000                                                                  
G26  22071544.789   115986773.662                          45.000                                                                  
G27  20328345.423   106826215.161                          51.000                                                                  
G31  24246464.378   127416005.886                          42.000                                                                  
> 2018  6  8  1 43 36.0000000  0  9                     
G 4  23137366.108   121587669.583                          42.000                                                                  
G 8  22564344.799   118576451.100                          45.000                                                                  
G 9  22149160.284   116394640.148                          47.000                                                                  
G16  20519387.365   107830123.926                          49.000                                                                  
G21  24445263.977   128460749.092                          40.000                                                                  
G23  21351823.055   112204596.190                          48.000                                                                  
G26  22071981.955   115989070.859                          45.000                                                                  
G27  20328058.465   106824707.265                          51.000                                                                  
G31  24247029.379   127418975.128                          42.000                                                                  
> 2018  6  8  1 43 37.0000000  0  9                     
G 4  23137921.817   121590589.579                          42.000                                                                  
G 8  22563708.162   118573105.412                          45.000                                                                  
G 9  22148920.571   116393380.419                          47.000                                                                  
G16  20519635.173   107831425.982                          49.000                                                                  
G21  24445278.058   128460822.629                          40.000                                                                  
G23  21351970.170   112205369.012                          48.000                                                                  
G26  22072419.139   115991368.348                          45.000                                                                  
G27  20327771.649   106823200.188                          51.000                                                                  
G31  24247594.451   127421944.699                          42.000                                                                  
> 2018  6  8  1 43 38.0000000  0  9                     
G 4  23138477.472   121593509.693                          42.000                                                                  
G 8  22563071.632   118569760.097                          45.000                                                                  
G 9  22148680.966   116392121.344                          47.000                                                                  
G16  20519883.016   107832728.390                          49.000                                                                  
G21  24445292.157   128460896.718                          40.000                                                                  
G23  21352117.358   112206142.509                          48.000                                                                  
G26  22072856.376   115993666.050                          45.000                                                                  
G27  20327484.941   106821693.798                          51.000                                                                  
G31  24248159.362   127424914.484                          42.000                                                                  
> 2018  6  8  1 43 39.0000000  0  9                     
G 4  23139033.109   121596429.760                          42.000                                                                  
G 8  22562435.048   118566414.966                          45.000                                                                  
G 9  22148441.539   116390862.785                          47.000                                                                  
G16  20520130.877   107834030.986                          49.000                                                                  
G21  24445306.381   128460971.174                          40.000                                                                  
G23  21352264.670   112206916.528                          48.000                                                                  
G26  22073293.577   115995963.767                          45.000                                                                  
G27  20327198.357   106820187.930                          51.000                                                                  
G31  24248724.417   127427884.319                          42.000                                                                  
> 2018  6  8  1 43 40.0000000  0  9                     
G 4  23139588.765   121599349.471                          42.000                                                                  
G 8  22561798.481   118563069.777                          45.000                                                                  
G 9  22148202.147   116389604.447                          47.000                                                                  
G16  20520378.756   107835333.511                          49.000                                                                  
G21  24445320.587   128461045.729                          40.000                                                                  
G23  21352412.036   112207690.800                          48.000                                                                  
G26  22073730.689   115998261.250                          45.000                                                                  
G27  20326911.899   106818682.308                          51.000                                                                  
G31  24249289.399   127430853.922                          42.000                                                                  
> 2018  6  8  1 43 41.0000000  0  9                     
G 4  23140144.491   121602269.432                          42.000                                                                  
G 8  22561162.023   118559725.072                          45.000                                                                  
G 9  22147962.828   116388346.921                          47.000                                                                  
G16  20520626.743   107836636.529                          49.000                                                                  
G21  24445334.917   128461120.969                          40.000                                                                  
G23  21352559.562   112208465.891                          48.000                                                                  
G26  22074167.944   116000559.055                          45.000                                                                  
G27  20326625.566   106817177.509                          51.000                                                                  
G31  24249854.543   127433823.872                          42.000                                                                  
> 2018  6  8  1 43 42.0000000  0  9                     
G 4  23140700.146   121605189.479                          42.000                                                                  
G 8  22560525.635   118556380.687                          45.000                                                                  
G 9  22147723.669   116387090.021                          47.000                                                                  
G16  20520874.765   107837939.853                          48.000                                                                  
G21  24445349.409   128461196.698                          40.000                                                                  
G23  21352707.125   112209241.644                          48.000                                                                  
G26  22074605.199   116002857.024                          45.000                                                                  
G27  20326339.358   106815673.354                          51.000                                                                  
G31  24250419.669   127436793.988                          41.000                                                                  
> 2018  6  8  1 43 43.0000000  0  9                     
G 4  23141255.837   121608109.475                          42.000                                                                  
G 8  22559889.301   118553036.525                          45.000                                                                  
G 9  22147484.563   116385833.619                          47.000                                                                  
G16  20521122.733   107839243.390                          48.000                                                                  
G21  24445363.865   128461272.820                          40.000                                                                  
G23  21352854.794   112210017.918                          48.000                                                                  
G26  22075042.383   116005155.035                          45.000                                                                  
G27  20326053.257   106814169.725                          51.000                                                                  
G31  24250984.830   127439764.158                          42.000                                                                  
> 2018  6  8  1 43 44.0000000  0  9                     
G 4  23141811.457   121611029.547                          42.000                                                                  
G 8  22559252.950   118549692.718                          45.000                                                                  
G 9  22147245.619   116384577.884                          47.000                                                                  
G16  20521370.862   107840547.269                          48.000                                                                  
G21  24445378.446   128461349.456                          40.000                                                                  
G23  21353002.589   112210794.874                          48.000                                                                  
G26  22075479.727   116007453.227                          45.000                                                                  
G27  20325767.281   106812666.780                          51.000                                                                  
G31  24251550.117   127442734.530                          42.000                                                                  
> 2018  6  8  1 43 45.0000000  0  9                     
G 4  23142367.148   121613949.737                          42.000                                                                  
G 8  22558616.705   118546349.261                          45.000                                                                  
G 9  22147006.746   116383322.814                          47.000                                                                  
G16  20521619.081   107841851.493                          49.000                                                                  
G21  24445393.313   128461426.621                          40.000                                                                  
G23  21353150.544   112211572.494                          48.000                                                                  
G26  22075917.089   116009751.587                          45.000                                                                  
G27  20325481.430   106811164.513                          51.000                                                                  
G31  24252115.403   127445705.087                          42.000                                                                  
> 2018  6  8  1 43 46.0000000  0  9                     
G 4  23142922.910   121616870.018                          42.000                                                                  
G 8  22557980.604   118543006.155                          45.000                                                                  
G 9  22146768.069   116382068.396                          47.000                                                                  
G16  20521867.353   107843156.067                          48.000                                                                  
G21  24445408.020   128461504.337                          40.000                                                                  
G23  21353298.625   112212350.798                          48.000                                                                  
G26  22076354.505   116012050.135                          45.000                                                                  
G27  20325195.704   106809662.908                          51.000                                                                  
G31  24252680.600   127448675.843                          42.000                                                                  
> 2018  6  8  1 43 47.0000000  0  9                     
G 4  23143478.601   121619790.328                          42.000                                                                  
G 8  22557344.520   118539663.314                          45.000                                                                  
G 9  22146529.500   116380814.562                          47.000                                                                  
G16  20522115.572   107844460.910                          49.000                                                                  
G21  24445422.797   128461582.460                          40.000                                                                  
G23  21353446.813   112213129.706                          48.000                                                                  
G26  22076791.939   116014348.806                          45.000                                                                  
G27  20324910.086   106808161.906                          51.000                                                                  
G31  24253245.958   127451646.726                          42.000                                                                  
> 2018  6  8  1 43 48.0000000  0  9                     
G 4  23144034.292   121622710.744                          42.000                                                                  
G 8  22556708.580   118536320.851                          45.000                                                                  
G 9  22146291.109   116379561.409                          47.000                                                                  
G16  20522364.005   107845766.129                          49.000                                                                  
G21  24445437.861   128461661.165                          40.000                                                                  
G23  21353595.179   112213909.319                          48.000                                                                  
G26  22077229.372   116016647.676                          45.000                                                                  
G27  20324624.593   106806661.602                          51.000                                                                  
G31  24253811.406   127454617.831                          42.000                                                                  
> 2018  6  8  1 43 49.0000000  0  9                     
G 4  23144590.143   121625631.231                          42.000                                                                  
G 8  22556072.639   118532978.678                          45.000                                                                  
G 9  22146052.808   116378308.860                          47.000                                                                  
G16  20522612.366   107847071.654                          49.000                                                                  
G21  24445452.907   128461740.357                          40.000                                                                  
G23  21353743.707   112214689.562                          48.000                                                                  
G26  22077666.788   116018946.687                          45.000                                                                  
G27  20324339.242   106805161.937                          51.000                                                                  
G31  24254376.889   127457589.101                          42.000                                                                  
> 2018  6  8  1 43 50.0000000  0  9                     
G 4  23145145.763   121628551.576                          42.000                                                                  
G 8  22555436.734   118529636.623                          45.000                                                                  
G 9  22145814.578   116377056.743                          47.000                                                                  
G16  20522860.781   107848377.293                          48.000                                                                  
G21  24445468.077   128461819.851                          40.000                                                                  
G23  21353892.341   112215470.255                          48.000                                                                  
G26  22078104.204   116021245.660                          45.000                                                                  
G27  20324053.981   106803662.710                          51.000                                                                  
G31  24254942.390   127460560.324                          42.000                                                                  
> 2018  6  8  1 43 51.0000000  0  9                     
G 4  23145701.561   121631472.065                          42.000                                                                  
G 8  22554800.936   118526294.979                          45.000                                                                  
G 9  22145576.473   116375805.341                          47.000                                                                  
G16  20523109.322   107849683.345                          48.000                                                                  
G21  24445483.284   128461899.912                          40.000                                                                  
G23  21354041.137   112216251.681                          48.000                                                                  
G26  22078541.620   116023544.850                          45.000                                                                  
G27  20323768.863   106802164.219                          51.000                                                                  
G31  24255507.801   127463531.811                          42.000                                                                  
> 2018  6  8  1 43 52.0000000  0  9                     
G 4  23146257.234   121634392.654                          42.000                                                                  
G 8  22554165.192   118522953.675                          45.000                                                                  
G 9  22145338.440   116374554.574                          47.000                                                                  
G16  20523357.933   107850989.709                          48.000                                                                  
G21  24445498.794   128461980.483                          40.000                                                                  
G23  21354189.950   112217033.764                          48.000                                                                  
G26  22078979.125   116025844.220                          44.000                                                                  
G27  20323483.870   106800666.383                          51.000                                                                  
G31  24256073.159   127466503.468                          41.000                                                                  
> 2018  6  8  1 43 53.0000000  0  9                     
G 4  23146812.907   121637313.220                          42.000                                                                  
G 8  22553529.484   118519612.589                          45.000                                                                  
G 9  22145100.478   116373304.337                          47.000                                                                  
G16  20523606.492   107852296.298                          48.000                                                                  
G21  24445514.305   128462061.465                          40.000                                                                  
G23  21354338.870   112217816.414                          48.000                                                                  
G26  22079416.648   116028143.633                          44.000                                                                  
G27  20323198.984   106799169.095                          51.000                                                                  
G31  24256638.535   127469475.237                          41.000                                                                  
> 2018  6  8  1 43 54.0000000  0  9                     
G 4  23147368.723   121640233.668                          41.000                                                                  
G 8  22552893.704   118516271.663                          45.000                                                                  
G 9  22144862.659   116372054.594                          47.000                                                                  
G16  20523855.193   107853603.049                          48.000                                                                  
G21  24445529.994   128462142.793                          40.000                                                                  
G23  21354487.880   112218599.548                          48.000                                                                  
G26  22079854.171   116030443.067                          44.000                                                                  
G27  20322914.223   106797672.309                          51.000                                                                  
G31  24257204.036   127472446.994                          41.000                                                                  
> 2018  6  8  1 43 55.0000000  0  9                     
G 4  23147924.557   121643154.463                          42.000                                                                  
G 8  22552258.139   118512931.325                          45.000                                                                  
G 9  22144625.091   116370805.710                          47.000                                                                  
G16  20524104.019   107854910.367                          48.000                                                                  
G21  24445545.611   128462224.867                          40.000                                                                  
G23  21354637.086   112219383.588                          48.000                                                                  
G26  22080291.765   116032742.885                          44.000                                                                  
G27  20322629.588   106796176.409                          51.000                                                                  
G31  24257769.537   127475419.162                          42.000                                                                  
> 2018  6  8  1 43 56.0000000  0  9                     
G 4  23148480.390   121646075.137                          42.000                                                                  
G 8  22551622.430   118509591.139                          45.000                                                                  
G 9  22144387.522   116369557.281                          47.000                                                                  
G16  20524352.791   107856217.813                          48.000                                                                  
G21  24445561.139   128462307.263                          40.000                                                                  
G23  21354786.400   112220168.087                          48.000                                                                  
G26  22080729.414   116035042.691                          44.000                                                                  
G27  20322345.077   106794680.979                          51.000                                                                  
G31  24258335.110   127478391.312                          42.000                                                                  
> 2018  6  8  1 43 57.0000000  0  9                     
G 4  23149036.028   121648995.852                          42.000                                                                  
G 8  22550986.793   118506251.261                          45.000                                                                  
G 9  22144150.078   116368309.457                          47.000                                                                  
G16  20524601.617   107857525.571                          48.000                                                                  
G21  24445576.793   128462390.141                          40.000                                                                  
G23  21354935.803   112220953.210                          48.000                                                                  
G26  22081167.026   116037342.621                          44.000                                                                  
G27  20322060.674   106793186.171                          51.000                                                                  
G31  24258900.879   127481363.632                          42.000                                                                  
> 2018  6  8  1 43 58.0000000  0  9                     
G 4  23149591.701   121651916.649                          42.000                                                                  
G 8  22550351.264   118502911.707                          45.000                                                                  
G 9  22143912.742   116367062.290                          47.000                                                                  
G16  20524850.497   107858833.660                          48.000                                                                  
G21  24445592.571   128462473.535                          40.000                                                                  
G23  21355085.367   112221739.008                          48.000                                                                  
G26  22081604.781   116039642.733                          44.000                                                                  
G27  20321776.413   106791692.041                          51.000                                                                  
G31  24259466.505   127484336.135                          42.000                                                                  
> 2018  6  8  1 43 59.0000000  0  9                     
G 4  23150147.660   121654837.734                          42.000                                                                  
G 8  22549715.841   118499572.686                          45.000                                                                  
G 9  22143675.531   116365815.959                          47.000                                                                  
G16  20525099.502   107860142.280                          48.000                                                                  
G21  24445608.653   128462557.642                          40.000                                                                  
G23  21355235.020   112222525.661                          48.000                                                                  
G26  22082042.608   116041943.208                          44.000                                                                  
G27  20321492.260   106790198.759                          52.000                                                                  
G31  24260032.363   127487309.021                          42.000                                                                  
> 2018  6  8  1 44  0.0000000  0  9                     
G 4  23150703.476   121657758.890                          42.000                                                                  
G 8  22549080.401   118496234.002                          45.000                                                                  
G 9  22143438.427   116364570.263                          47.000                                                                  
G16  20525348.543   107861451.205                          48.000                                                                  
G21  24445624.592   128462642.236                          40.000                                                                  
G23  21355384.780   112223312.958                          48.000                                                                  
G26  22082480.381   116044243.836                          44.000                                                                  
G27  20321208.232   106788706.117                          52.000                                                                  
G31  24260598.329   127490282.072                          42.000                                                                  
> 2018  6  8  1 44  1.0000000  0  9                     
G 4  23151259.309   121660680.060                          42.000                                                                  
G 8  22548445.104   118492895.598                          45.000                                                                  
G 9  22143201.519   116363325.141                          47.000                                                                  
G16  20525597.673   107862760.430                          49.000                                                                  
G21  24445640.782   128462727.303                          40.000                                                                  
G23  21355534.719   112224100.870                          48.000                                                                  
G26  22082918.244   116046544.588                          44.000                                                                  
G27  20320924.311   106787214.099                          52.000                                                                  
G31  24261164.169   127493255.267                          42.000                                                                  
> 2018  6  8  1 44  2.0000000  0  9                     
G 4  23151815.072   121663601.274                          42.000                                                                  
G 8  22547809.735   118489557.504                          45.000                                                                  
G 9  22142964.665   116362080.615                          47.000                                                                  
G16  20525846.856   107864069.927                          48.000                                                                  
G21  24445657.150   128462812.828                          40.000                                                                  
G23  21355684.765   112224889.391                          48.000                                                                  
G26  22083356.106   116048845.451                          44.000                                                                  
G27  20320640.533   106785722.678                          51.000                                                                  
G31  24261730.027   127496228.591                          42.000                                                                  
> 2018  6  8  1 44  3.0000000  0  9                     
G 4  23152371.013   121666522.623                          41.000                                                                  
G 8  22547174.491   118486219.792                          45.000                                                                  
G 9  22142727.990   116360836.784                          47.000                                                                  
G16  20526096.183   107865379.810                          48.000                                                                  
G21  24445673.500   128462898.907                          40.000                                                                  
G23  21355834.918   112225678.620                          48.000                                                                  
G26  22083794.005   116051146.528                          44.000                                                                  
G27  20320356.862   106784231.978                          51.000                                                                  
G31  24262295.886   127499202.138                          42.000                                                                  
> 2018  6  8  1 44  4.0000000  0  9                     
G 4  23152926.990   121669444.007                          41.000                                                                  
G 8  22546539.301   118482882.356                          45.000                                                                  
G 9  22142491.386   116359593.552                          47.000                                                                  
G16  20526345.473   107866689.964                          48.000                                                                  
G21  24445689.832   128462985.450                          40.000                                                                  
G23  21355985.233   112226468.453                          48.000                                                                  
G26  22084231.974   116053447.719                          44.000                                                                  
G27  20320073.317   106782741.883                          51.000                                                                  
G31  24262861.655   127502175.826                          42.000                                                                  
> 2018  6  8  1 44  5.0000000  0  9                     
G 4  23153482.877   121672365.423                          41.000                                                                  
G 8  22545904.236   118479545.234                          45.000                                                                  
G 9  22142254.961   116358350.934                          47.000                                                                  
G16  20526594.907   107868000.433                          48.000                                                                  
G21  24445706.343   128463072.500                          40.000                                                                  
G23  21356135.708   112227258.932                          48.000                                                                  
G26  22084669.891   116055749.049                          44.000                                                                  
G27  20319789.896   106781252.436                          52.000                                                                  
G31  24263427.424   127505149.684                          42.000                                                                  
